[{"myID":"2","name":"天心中醫醫院","phone":223615050,"address":"台北市中正區武昌街一段33號","lon":121.512017,"lat":25.044235,"id":"5ff5539fd665a2afa676569c"},{"myID":"3","name":"國立台灣大學醫學院附設醫院","address":"台北市中正區中山南路7、8號；常德街1號","lon":121.5183016,"lat":25.0407356,"id":"5ff5539fd665a2afa676569d"},{"myID":"4","name":"台北市立聯合醫院","phone":25523234,"address":"台北市大同區鄭州路145號","lon":121.5093209,"lat":25.0509696,"id":"5ff5539fd665a2afa676569e"},{"myID":"5","name":"行政院衛生署台北醫院城區分院","phone":25521429,"address":"台北市大同區鄭州路40號","lon":121.5085064,"lat":25.0501995,"id":"5ff5539fd665a2afa676569f"},{"myID":"6","name":"協和婦女醫院","phone":225072222,"address":"台北市中山區松江路85巷5號1，2，3，4樓、93巷6號1，4樓","lon":121.5282095,"lat":25.0490351,"id":"5ff5539fd665a2afa67656a0"},{"myID":"8","name":"財團法人台灣基督長老教會馬偕紀念社會事業基金會馬偕紀念醫院","phone":225433535,"address":"台北市中山區中山北路二段92號","lon":121.5226251,"lat":25.0588655,"id":"5ff5539fd665a2afa67656a1"},{"myID":"1","name":"郵政總局郵政醫院","phone":223956755,"address":"台北市中正區福州街14號","lon":121.5187444,"lat":25.0287884,"id":"5ff5539fd665a2afa67656a2"},{"myID":"9","name":"福全醫院","phone":225630555,"address":"台北市中山區民權東路二段48號","lon":121.5305693,"lat":25.0623558,"id":"5ff5539fd665a2afa67656a3"},{"myID":"11","name":"基督復臨安息日會醫療財團法人台安醫院","phone":227718151,"address":"台北市松山區八德路二段424,426號","lon":121.5475368,"lat":25.048012,"id":"5ff5539fd665a2afa67656a4"},{"myID":"12","name":"長庚醫療財團法人台北長庚紀念醫院","phone":227135211,"address":"台北市松山區敦化北路199號","lon":121.5496167,"lat":25.0556065,"id":"5ff5539fd665a2afa67656a5"},{"myID":"10","name":"培靈醫院","phone":227606116,"address":"台北市松山區八德路四段355號","lon":121.5682439,"lat":25.049349,"id":"5ff5539fd665a2afa67656a6"},{"myID":"7","name":"泰安醫院","phone":225375633,"address":"台北市中山區民權東路二段92巷2之1號(地下一樓至地上六樓)","lon":121.5316759,"lat":25.0614508,"id":"5ff5539fd665a2afa67656a7"},{"myID":"16","name":"秀傳醫院","phone":null,"address":"台北市大安區光復南路116巷1.3.5號1至4樓及地下1樓","lon":121.556835,"lat":25.0430959,"id":"5ff5539fd665a2afa67656a8"},{"myID":"17","name":"中心診所醫療財團法人中心綜合醫院","phone":227510221,"address":"台北市大安區忠孝東路四段77號","lon":121.547396,"lat":25.0418484,"id":"5ff5539fd665a2afa67656a9"},{"myID":"18","name":"國泰醫療財團法人國泰綜合醫院","phone":227082121,"address":"台北市大安區仁愛路四段266巷6號，280號","lon":121.552793,"lat":25.037316,"id":"5ff5539fd665a2afa67656aa"},{"myID":"13","name":"松山醫院","address":"台北市松山區南京東路五段324號一至四樓322號一至四樓","lon":121.5682667,"lat":25.0510695,"id":"5ff5539fd665a2afa67656ab"},{"myID":"14","name":"三軍總醫院松山分院附設民眾診療服務處","phone":227462151,"address":"台北市松山區健康路131號","lon":121.557672,"lat":25.054373,"id":"5ff5539fd665a2afa67656ac"},{"myID":"20","name":"宏恩醫療財團法人宏恩綜合醫院","phone":227713161,"address":"台北市大安區仁愛路四段71巷1號","lon":121.5466881,"lat":25.0381916,"id":"5ff5539fd665a2afa67656ad"},{"myID":"21","name":"西園醫院","phone":223076968,"address":"台北市萬華區西園路二段276號185、187、189號","lon":121.494286,"lat":25.0275909,"id":"5ff5539fd665a2afa67656ae"},{"myID":"15","name":"博仁綜合醫院","phone":225786677,"address":"台北市松山區光復北路66-68號","lon":121.5578126,"lat":25.0498882,"id":"5ff5539fd665a2afa67656af"},{"myID":"19","name":"中山醫療社團法人中山醫院","address":"台北市大安區仁愛路四段112巷11號","lon":121.5499766,"lat":25.0366641,"id":"5ff5539fd665a2afa67656b0"},{"myID":"22","name":"國立台灣大學醫學院附設醫院北護分院","phone":223717101,"address":"台北市萬華區康定路37號","lon":121.5024827,"lat":25.042142,"id":"5ff5539fd665a2afa67656b1"},{"myID":"23","name":"全昌堂傳統中醫醫院","phone":223753383,"address":"台北市萬華區漢中街154號","lon":121.5066859,"lat":25.0413199,"id":"5ff5539fd665a2afa67656b2"},{"myID":"24","name":"財團法人台灣省私立台北仁濟院附設仁濟醫院","phone":223021131,"address":"台北市萬華區廣州街200，243號","lon":121.497895,"lat":25.03666,"id":"5ff5539fd665a2afa67656b3"},{"myID":"25","name":"同仁院醫療財團法人萬華醫院","phone":223059292,"address":"台北市萬華區中華路二段606巷6號","lon":121.5098076,"lat":25.0240204,"id":"5ff5539fd665a2afa67656b4"},{"myID":"26","name":"台北醫學大學附設醫院","phone":227372181,"address":"台北市信義區吳興街252號","lon":121.5634277,"lat":25.0267606,"id":"5ff5539fd665a2afa67656b5"},{"myID":"30","name":"振興醫療財團法人振興醫院","phone":228264400,"address":"台北市北投區振興街45號","lon":121.5224662,"lat":25.1175257,"id":"5ff5539fd665a2afa67656b6"},{"myID":"27","name":"仁康醫院","phone":227360226,"address":"台北市信義區基隆路二段131之24號","lon":121.556217,"lat":25.0274038,"id":"5ff5539fd665a2afa67656b7"},{"myID":"31","name":"醫療財團法人辜公亮基金會和信治癌中心醫院","address":"台北市北投區立德路125號","lon":121.4720764,"lat":25.1283783,"id":"5ff5539fd665a2afa67656b8"},{"myID":"33","name":"行政院國軍退除役官兵輔導委員會台北榮民總醫院","phone":228712121,"address":"台北市北投區石牌路二段201號","lon":121.5201598,"lat":25.1201836,"id":"5ff5539fd665a2afa67656ba"},{"myID":"34","name":"康寧醫療財團法人康寧醫院","phone":26345500,"address":"台北市內湖區成功路五段420巷26號","lon":121.6087332,"lat":25.0758921,"id":"5ff5539fd665a2afa67656bb"},{"myID":"29","name":"台北市立關渡醫院─委託行政院國軍退除役官兵輔導委員會台北榮民總醫院經營","phone":28587000,"address":"台北市北投區知行路二二五巷十二號","lon":121.4662917,"lat":25.1202506,"id":"5ff5539fd665a2afa67656bc"},{"myID":"37","name":"資生堂醫院","phone":227867696,"address":"台北市南港區新民街64號","lon":121.611524,"lat":25.0559219,"id":"5ff5539fd665a2afa67656bd"},{"myID":"38","name":"台北市立萬芳醫院－委託財團法人私立台北醫學大學辦理","phone":229307930,"address":"台北市文山區興隆路三段111號","lon":121.5575845,"lat":24.9996897,"id":"5ff5539fd665a2afa67656be"},{"myID":"35","name":"三軍總醫院附設民眾診療服務處","phone":null,"address":"台北市內湖區成功路二段325號；台北市中正區汀州路3段40號","lon":121.5598345,"lat":25.091075,"id":"5ff5539fd665a2afa67656bf"},{"myID":"39","name":"景美醫院","address":"台北市文山區羅斯福路六段280號","lon":121.539881,"lat":24.991198,"id":"5ff5539fd665a2afa67656c0"},{"myID":"41","name":"澄清綜合醫院","address":"台中市中區平等街139號","lon":120.6816834,"lat":24.1426197,"id":"5ff5539fd665a2afa67656c1"},{"myID":"42","name":"仁愛醫療財團法人台中仁愛醫院","address":"台中市中區柳川里柳川東路三段36號","lon":120.6779185,"lat":24.143416,"id":"5ff5539fd665a2afa67656c2"},{"myID":"40","name":"第一醫院","address":"台中市中區民族路一八四號","lon":120.6764501,"lat":24.1425177,"id":"5ff5539fd665a2afa67656c3"},{"myID":"43","name":"中國醫藥大學附設醫院台中東區分院","address":"台中市東區自由路三段296號","lon":120.6946953,"lat":24.1426656,"id":"5ff5539fd665a2afa67656c4"},{"myID":"32","name":"三軍總醫院北投分院附設民眾診療服務處","phone":228959808,"address":"台北市北投區新民路60號 中和街二五0號","lon":121.509722,"lat":25.1398979,"id":"5ff5539fd665a2afa67656c5"},{"myID":"44","name":"台新醫院","address":"台中市東區振興路439之3號及441號","lon":120.705561,"lat":24.130363,"id":"5ff5539fd665a2afa67656c6"},{"myID":"36","name":"中國醫藥大學附設醫院台北分院","address":"台北市內湖區內湖路二段360號","lon":121.5906407,"lat":25.0821548,"id":"5ff5539fd665a2afa67656c7"},{"myID":"45","name":"台安醫院","address":"台中市東區進化路二0三號","lon":120.693969,"lat":24.1604549,"id":"5ff5539fd665a2afa67656c8"},{"myID":"46","name":"中山醫學大學附設醫院中興分院","phone":null,"address":"台中市南區復興路2段11號","lon":120.6585786,"lat":24.1176305,"id":"5ff5539fd665a2afa67656c9"},{"myID":"47","name":"宏恩醫院","address":"台中市南區復興路二段38-13號、南平路31-2號1、2、3樓","lon":120.6597548,"lat":24.1187884,"id":"5ff5539fd665a2afa67656ca"},{"myID":"48","name":"宏恩醫院龍安分院","address":"台中市南區德富路145巷2號","lon":120.6550624,"lat":24.1194099,"id":"5ff5539fd665a2afa67656cb"},{"myID":"50","name":"財團法人台灣省私立台中仁愛之家附設靜和醫院","address":"台中市西區吉龍里南屯路1段158號","lon":120.6596379,"lat":24.1334648,"id":"5ff5539fd665a2afa67656cc"},{"myID":"49","name":"中山醫學大學附設醫院","address":"台中市南區建國北路一段110號","lon":120.6516957,"lat":24.1218042,"id":"5ff5539fd665a2afa67656cd"},{"myID":"51","name":"林森醫院","address":"台中市西區三民里三民路一段152號之一","lon":120.67297,"lat":24.135917,"id":"5ff5539fd665a2afa67656ce"},{"myID":"52","name":"行政院衛生署台中醫院","address":"台中市西區廣民里三民路1段199號","lon":120.6762712,"lat":24.1406262,"id":"5ff5539fd665a2afa67656cf"},{"myID":"53","name":"台安醫院雙十分院","address":"台中市北區雙十路二段29號","lon":120.6885503,"lat":24.1526275,"id":"5ff5539fd665a2afa67656d0"},{"myID":"54","name":"勝美醫院","address":"台中市北區五權路480、482號","lon":120.68289,"lat":24.153249,"id":"5ff5539fd665a2afa67656d1"},{"myID":"55","name":"新亞東婦產科醫院","address":"台中市北區大雅路271號、275號1樓","lon":120.6836398,"lat":24.1644839,"id":"5ff5539fd665a2afa67656d2"},{"myID":"56","name":"中國醫藥大學附設醫院","address":"台中市北區育德路二號","lon":120.6805492,"lat":24.1576494,"id":"5ff5539fd665a2afa67656d3"},{"myID":"57","name":"維新醫療社團法人台中維新醫院","address":"台中市北區育德路185、187號","lon":120.6724155,"lat":24.1571613,"id":"5ff5539fd665a2afa67656d4"},{"myID":"58","name":"順天醫療社團法人順天醫院","address":"台中市北區三民路三段333號","lon":120.689036,"lat":24.1576963,"id":"5ff5539fd665a2afa67656d5"},{"myID":"59","name":"國軍台中總醫院附設民眾診療服務處中清分院","address":"台中市北區忠明路500號","lon":120.6722378,"lat":24.1627247,"id":"5ff5539fd665a2afa67656d6"},{"myID":"62","name":"聯安醫院","address":"台中市北屯區東山路一段37號","lon":120.6993404,"lat":24.170599,"id":"5ff5539fd665a2afa67656d7"},{"myID":"63","name":"全民醫院","address":"台中市北屯區中清路72之42號","lon":120.6664979,"lat":24.1815792,"id":"5ff5539fd665a2afa67656d8"},{"myID":"64","name":"博愛外科醫院","address":"台中市北屯區文心路三段431號","lon":120.667943,"lat":24.173492,"id":"5ff5539fd665a2afa67656d9"},{"myID":"60","name":"弘光科技大學附設老人醫院","address":"台中市北屯區太原路三段1141號","lon":120.7228657,"lat":24.1627049,"id":"5ff5539fd665a2afa67656da"},{"myID":"61","name":"澄清復健醫院","phone":null,"address":"台中市北屯區太原路3段1142號","lon":120.7216065,"lat":24.1616668,"id":"5ff5539fd665a2afa67656db"},{"myID":"65","name":"聯合中醫醫院","address":"台中市北屯區大連路二段36號一、二樓","lon":120.683063,"lat":24.176052,"id":"5ff5539fd665a2afa67656dc"},{"myID":"66","name":"澄清綜合醫院中港分院","address":"台中市西屯區台灣大道4段972號","lon":120.6168215,"lat":24.182821,"id":"5ff5539fd665a2afa67656dd"},{"myID":"68","name":"友仁醫院","address":"台中市南屯區五權西路二段197號","lon":120.6495166,"lat":24.1398865,"id":"5ff5539fd665a2afa67656de"},{"myID":"67","name":"行政院國軍退除役官兵輔導委員會台中榮民總醫院","address":"台中市西屯區台灣大道4段1650號","lon":120.60371,"lat":24.183744,"id":"5ff5539fd665a2afa67656df"},{"myID":"70","name":"法務部矯正署台中監獄附設培德醫院","address":"台中市南屯區培德路9號","lon":120.5997446,"lat":24.1422587,"id":"5ff5539fd665a2afa67656e0"},{"myID":"72","name":"賢德醫院","address":"台中市太平區宜昌路420號","lon":120.7143044,"lat":24.145305,"id":"5ff5539fd665a2afa67656e1"},{"myID":"73","name":"國軍台中總醫院附設民眾診療服務處","address":"台中市太平區中山路二段348號","lon":120.7285064,"lat":24.1501058,"id":"5ff5539fd665a2afa67656e2"},{"myID":"74","name":"仁愛醫療財團法人大里仁愛醫院","address":"台中市大里區東榮路483號","lon":120.6805749,"lat":24.1092272,"id":"5ff5539fd665a2afa67656e3"},{"myID":"75","name":"新菩提醫院","address":"台中市大里區中興路二段619、621號","lon":120.689765,"lat":24.115661,"id":"5ff5539fd665a2afa67656e4"},{"myID":"76","name":"達明眼科醫院","address":"台中市大里區中興路二段490號","lon":120.690076,"lat":24.1113899,"id":"5ff5539fd665a2afa67656e5"},{"myID":"69","name":"林新醫療社團法人林新醫院","address":"台中市南屯區惠中路3段36號","lon":120.6403479,"lat":24.1490126,"id":"5ff5539fd665a2afa67656e6"},{"myID":"71","name":"太平澄清醫院","address":"台中市太平區中興路88之7、92、94、96號","lon":120.715823,"lat":24.127512,"id":"5ff5539fd665a2afa67656e7"},{"myID":"77","name":"霧峰澄清醫院","address":"台中市霧峰區中正路1129號","lon":120.6993022,"lat":24.0699168,"id":"5ff5539fd665a2afa67656e8"},{"myID":"80","name":"烏日澄清醫院","address":"台中市烏日區光明路419號","lon":120.6476842,"lat":24.100883,"id":"5ff5539fd665a2afa67656e9"},{"myID":"81","name":"杏豐醫院","address":"台中市豐原區三民路106號","lon":120.720143,"lat":24.253662,"id":"5ff5539fd665a2afa67656ea"},{"myID":"82","name":"祥恩醫院","address":"台中市豐原區中興路35號","lon":120.7175946,"lat":24.2481498,"id":"5ff5539fd665a2afa67656eb"},{"myID":"83","name":"新惠生醫院","address":"台中市豐原區圓環北路一段319號","lon":120.7193461,"lat":24.2582524,"id":"5ff5539fd665a2afa67656ec"},{"myID":"78","name":"本堂澄清醫院","address":"台中市霧峰區中正路718號及中正路720巷5號","lon":120.6948132,"lat":24.0514625,"id":"5ff5539fd665a2afa67656ed"},{"myID":"84","name":"漢忠醫院","address":"台中市豐原區中正路218號","lon":120.7178434,"lat":24.2522299,"id":"5ff5539fd665a2afa67656ee"},{"myID":"79","name":"泰安醫院","address":"台中市霧峰區中正路928號","lon":120.6987272,"lat":24.0648288,"id":"5ff5539fd665a2afa67656ef"},{"myID":"85","name":"福平醫院","address":"台中市豐原區中正路71號","lon":120.7215388,"lat":24.2525541,"id":"5ff5539fd665a2afa67656f0"},{"myID":"86","name":"豐安醫院","address":"台中市豐原區中正路115號","lon":120.7206136,"lat":24.2516261,"id":"5ff5539fd665a2afa67656f1"},{"myID":"87","name":"惠盛醫院","phone":425229100,"address":"台中市豐原區中正路268號","lon":120.716185,"lat":24.251739,"id":"5ff5539fd665a2afa67656f2"},{"myID":"88","name":"中國醫藥大學附設醫院豐原分院","address":"台中市豐原區中正路199號","lon":120.7183696,"lat":24.2516467,"id":"5ff5539fd665a2afa67656f3"},{"myID":"89","name":"行政院衛生署豐原醫院","address":"台中市豐原區安康路100號","lon":120.7252031,"lat":24.2427794,"id":"5ff5539fd665a2afa67656f4"},{"myID":"90","name":"大同中醫醫院","address":"台中市豐原區下街里仁愛街11號","lon":120.717477,"lat":24.252515,"id":"5ff5539fd665a2afa67656f5"},{"myID":"91","name":"天心中醫醫院","address":"台中市豐原區田心里中山路206號","lon":120.712405,"lat":24.240588,"id":"5ff5539fd665a2afa67656f6"},{"myID":"92","name":"清海醫院","address":"台中市石岡區金星里石岡街下坑巷四十一之二號","lon":120.7758057,"lat":24.2489187,"id":"5ff5539fd665a2afa67656f7"},{"myID":"96","name":"清泉醫院","address":"台中市大雅區三和里雅潭路四段80號","lon":120.6573443,"lat":24.2212538,"id":"5ff5539fd665a2afa67656f8"},{"myID":"97","name":"大雅澄清醫院","address":"台中市大雅區中清路三段24之2號","lon":120.6443971,"lat":24.2271651,"id":"5ff5539fd665a2afa67656f9"},{"myID":"98","name":"光田醫療社團法人光田綜合醫院","address":"台中市沙鹿區沙田路117號（含大同街5-2號）","lon":120.558866,"lat":24.23543,"id":"5ff5539fd665a2afa67656fa"},{"myID":"94","name":"東勢鎮農會附設農民醫院","address":"台中市東勢區豐勢路297號","lon":120.8291464,"lat":24.2534386,"id":"5ff5539fd665a2afa67656fb"},{"myID":"95","name":"財團法人佛教慈濟綜合醫院台中分院","address":"台中市潭子區豐興路一段66、88號","lon":120.7215216,"lat":24.1966294,"id":"5ff5539fd665a2afa67656fc"},{"myID":"101","name":"明德醫院","address":"台中市梧棲區仁美街33巷50號","lon":120.5358872,"lat":24.2535822,"id":"5ff5539fd665a2afa67656fd"},{"myID":"93","name":"協和醫院","address":"台中市東勢區豐勢路318號","lon":120.8299791,"lat":24.2530973,"id":"5ff5539fd665a2afa67656fe"},{"myID":"99","name":"童綜合醫療社團法人童綜合醫院","address":"台中市梧棲區台灣大道八段699號","lon":120.5428236,"lat":24.2472297,"id":"5ff5539fd665a2afa67656ff"},{"myID":"100","name":"忠港醫院","address":"台中市梧棲區文化里中興路49號","lon":120.5345295,"lat":24.2530559,"id":"5ff5539fd665a2afa6765700"},{"myID":"105","name":"順安醫院","address":"台中市大甲區光明路6號","lon":120.6255703,"lat":24.3437285,"id":"5ff5539fd665a2afa6765701"},{"myID":"106","name":"永川醫院","address":"台南市中西區成功路169號","lon":120.2063338,"lat":22.9980871,"id":"5ff5539fd665a2afa6765702"},{"myID":"102","name":"陽光精神科醫院","address":"台中市清水區東山路68之1號","lon":120.60931,"lat":24.281092,"id":"5ff5539fd665a2afa6765703"},{"myID":"108","name":"洪外科醫院","address":"台南市中西區民生路2段60號","lon":120.1976531,"lat":22.9951697,"id":"5ff5539fd665a2afa6765704"},{"myID":"107","name":"行政院衛生署台南醫院","address":"台南市中西區中山路125號","lon":120.2088778,"lat":22.9960707,"id":"5ff5539fd665a2afa6765705"},{"myID":"110","name":"永和醫院","phone":2231191,"address":"台南市中西區府前路1段304巷2號","lon":120.1988936,"lat":22.9903504,"id":"5ff5539fd665a2afa6765706"},{"myID":"103","name":"清濱醫院","address":"台中市清水區港埠路四段195號","lon":120.5489577,"lat":24.2830846,"id":"5ff5539fd665a2afa6765708"},{"myID":"104","name":"李綜合醫療社團法人大甲李綜合醫院","address":"台中市大甲區八德街2號","lon":120.6179957,"lat":24.3507913,"id":"5ff5539fd665a2afa6765709"},{"myID":"112","name":"仁愛醫院","address":"台南市東區北門路1段10號、30巷16號","lon":120.2115805,"lat":22.9897823,"id":"5ff5539fd665a2afa676570a"},{"myID":"115","name":"奇美醫療財團法人奇美醫院台南分院","address":"台南市南區樹林街2段442號","lon":120.1961859,"lat":22.9865344,"id":"5ff5539fd665a2afa676570b"},{"myID":"116","name":"美德中醫醫院","address":"台南市北區公園路661號","lon":120.213908,"lat":23.0159901,"id":"5ff5539fd665a2afa676570c"},{"myID":"117","name":"陳澤彥婦產科醫院","address":"台南市北區中華北路二段101號1、2、3樓","lon":120.1970754,"lat":23.0194279,"id":"5ff5539fd665a2afa676570d"},{"myID":"118","name":"國立成功大學醫學院附設醫院","address":"台南市北區勝利路138號","lon":120.2189867,"lat":23.0021803,"id":"5ff5539fd665a2afa676570e"},{"myID":"119","name":"開元寺慈愛醫院","phone":2384111,"address":"台南市北區北園街89之1號","lon":120.2229222,"lat":23.0107271,"id":"5ff5539fd665a2afa676570f"},{"myID":"120","name":"志誠醫院","address":"台南市北區公園路315之1號","lon":120.2100967,"lat":23.0035515,"id":"5ff5539fd665a2afa6765710"},{"myID":"111","name":"郭綜合醫院","phone":2221111,"address":"台南市中西區民生路2段6.8.10.12.14.18.20.22.23.24.25.27.44號","lon":120.193106,"lat":22.9962871,"id":"5ff5539fd665a2afa6765711"},{"myID":"114","name":"台灣基督長老教會新樓醫療財團法人台南新樓醫院","address":"台南市東區東門路1段57號","lon":120.213285,"lat":22.9891433,"id":"5ff5539fd665a2afa6765712"},{"myID":"113","name":"台南市立醫院","address":"台南市東區崇德路670號","lon":120.226853,"lat":22.968705,"id":"5ff5539fd665a2afa6765713"},{"myID":"122","name":"永達醫療社團法人永達醫院","address":"台南市永康區永大路二段1326號","lon":120.2614286,"lat":23.0221714,"id":"5ff5539fd665a2afa6765714"},{"myID":"125","name":"晉生醫療社團法人晉生慢性醫院","address":"台南市永康區中山南路902巷5號2樓及7號","lon":120.2491123,"lat":23.0213479,"id":"5ff5539fd665a2afa6765715"},{"myID":"126","name":"財團法人台灣省私立台南仁愛之家附設精神療養院","address":"台南市新化區中山路20號","lon":120.3197562,"lat":23.0511126,"id":"5ff5539fd665a2afa6765716"},{"myID":"127","name":"行政院衛生署台南醫院新化分院","address":"台南市新化區那拔里牧場72號","lon":120.336598,"lat":23.0628399,"id":"5ff5539fd665a2afa6765717"},{"myID":"121","name":"台南市立安南醫院-委託中國醫藥大學興建經營","address":"台南市安南區長和路二段66號","lon":120.221312,"lat":23.063519,"id":"5ff5539fd665a2afa6765718"},{"myID":"129","name":"行政院衛生署嘉南療養院","address":"台南市仁德區中山路870巷80號","lon":120.256905,"lat":23.028439,"id":"5ff5539fd665a2afa6765719"},{"myID":"130","name":"台灣基督長老教會新樓醫療財團法人麻豆新樓醫院","address":"台南市麻豆區小埤里苓子林20號","lon":120.232868,"lat":23.1802283,"id":"5ff5539fd665a2afa676571a"},{"myID":"131","name":"奇美醫療財團法人佳里奇美醫院","address":"台南市佳里區興化里606號","lon":120.1837918,"lat":23.1816689,"id":"5ff5539fd665a2afa676571b"},{"myID":"132","name":"新生醫院","address":"台南市佳里區新生路272號,297號1- 4樓","lon":120.1765493,"lat":23.1603958,"id":"5ff5539fd665a2afa676571c"},{"myID":"133","name":"信一骨科醫院","address":"台南市新營區民生路43之26號","lon":120.3090217,"lat":23.3059414,"id":"5ff5539fd665a2afa676571d"},{"myID":"124","name":"奇美醫療財團法人奇美醫院","address":"台南市永康區中華路901號","lon":120.2220415,"lat":23.0209835,"id":"5ff5539fd665a2afa676571e"},{"myID":"135","name":"新興醫療社團法人新興醫院","address":"台南市新營區中興路10號","lon":120.316843,"lat":23.303633,"id":"5ff5539fd665a2afa676571f"},{"myID":"136","name":"行政院衛生署新營醫院","address":"台南市新營區信義街73號","lon":120.3133911,"lat":23.3088708,"id":"5ff5539fd665a2afa6765720"},{"myID":"137","name":"佑昇醫院","address":"台南市白河區民安路一號","lon":120.4111669,"lat":23.3461727,"id":"5ff5539fd665a2afa6765721"},{"myID":"138","name":"奇美醫療財團法人柳營奇美醫院","address":"台南市柳營區太康里201號","lon":120.325344,"lat":23.288519,"id":"5ff5539fd665a2afa6765722"},{"myID":"139","name":"謝醫院","address":"台南市善化區中正路436號","lon":120.2940313,"lat":23.1305646,"id":"5ff5539fd665a2afa6765723"},{"myID":"123","name":"高雄榮民總醫院台南分院","address":"台南市永康區復興路427號","lon":120.2402983,"lat":22.9973101,"id":"5ff5539fd665a2afa6765724"},{"myID":"128","name":"行政院衛生署胸腔病院","address":"台南市仁德區中山路864號","lon":120.2404549,"lat":22.9747262,"id":"5ff5539fd665a2afa6765725"},{"myID":"142","name":"靜和醫院","address":"高雄市新興區民族二路176,178,180,182號","lon":120.314078,"lat":22.636151,"id":"5ff5539fd665a2afa6765726"},{"myID":"143","name":"新華醫院","address":"高雄市新興區七賢二路97號地下1層，地上1至6層","lon":120.299918,"lat":22.634313,"id":"5ff5539fd665a2afa6765727"},{"myID":"144","name":"優生美地醫院","address":"高雄市新興區七賢一路420號地下一層，地上一至五層","lon":120.309348,"lat":22.633937,"id":"5ff5539fd665a2afa6765728"},{"myID":"145","name":"大千醫院","address":"高雄市新興區中正三路一之11號","lon":120.3124367,"lat":22.6304584,"id":"5ff5539fd665a2afa6765729"},{"myID":"140","name":"宏科醫院","address":"台南市善化區三民路1-35號","lon":120.2870613,"lat":23.12766,"id":"5ff5539fd665a2afa676572a"},{"myID":"147","name":"蕭志文醫院","address":"高雄市新興區七賢一路102號","lon":120.3142396,"lat":22.6338766,"id":"5ff5539fd665a2afa676572b"},{"myID":"134","name":"營新醫院","phone":6592592,"address":"台南市新營區隋唐街228號","lon":120.2998812,"lat":23.3084846,"id":"5ff5539fd665a2afa676572c"},{"myID":"146","name":"惠仁醫院","address":"高雄市新興區中山一路67之2號","lon":120.3015448,"lat":22.6298539,"id":"5ff5539fd665a2afa676572d"},{"myID":"141","name":"原祿骨科醫院","address":"高雄市新興區中正三路52號","lon":120.3091091,"lat":22.6310876,"id":"5ff5539fd665a2afa676572e"},{"myID":"149","name":"中正骨科醫院","phone":2855999,"address":"高雄市前金區中正四路100號地下一樓，地上十三樓","lon":120.2937201,"lat":22.628025,"id":"5ff5539fd665a2afa676572f"},{"myID":"148","name":"上琳醫院","address":"高雄市前金區自強一路67號B1-7樓","lon":120.2928959,"lat":22.6312167,"id":"5ff5539fd665a2afa6765730"},{"myID":"150","name":"健新醫院","address":"高雄市前金區七賢二路295號","lon":120.2907659,"lat":22.6313515,"id":"5ff5539fd665a2afa6765731"},{"myID":"152","name":"高雄市立大同醫院(委託財團法人私立高雄醫學大學附設中和紀念醫院經營)","phone":null,"address":"高雄市前金區中華三路68號","lon":120.2972463,"lat":22.6269695,"id":"5ff5539fd665a2afa6765732"},{"myID":"155","name":"高雄市立民生醫院","address":"高雄市苓雅區凱旋二路134號","lon":120.3235881,"lat":22.626625,"id":"5ff5539fd665a2afa6765733"},{"myID":"156","name":"高雄市立凱旋醫院","address":"高雄市苓雅區凱旋二路一三0號","lon":120.32451,"lat":22.622175,"id":"5ff5539fd665a2afa6765734"},{"myID":"151","name":"高雄市立中醫醫院","address":"高雄市前金區中華三路68號1-4樓部分樓層(新盛街入口)","lon":120.2972463,"lat":22.6269695,"id":"5ff5539fd665a2afa6765735"},{"myID":"153","name":"重仁骨科醫院","address":"高雄市前金區中華三路247號1至6樓","lon":120.2937721,"lat":22.6343497,"id":"5ff5539fd665a2afa6765736"},{"myID":"157","name":"國軍高雄總醫院附設民眾診療服務處","address":"高雄市苓雅區建軍路5號","lon":120.3419285,"lat":22.6259888,"id":"5ff5539fd665a2afa6765737"},{"myID":"160","name":"濟代中醫醫院","address":"高雄市苓雅區苓雅二路205、207、209號","lon":120.295823,"lat":22.616052,"id":"5ff5539fd665a2afa6765738"},{"myID":"161","name":"邱外科醫院","address":"高雄市苓雅區成功一路137號1-6樓","lon":120.297335,"lat":22.6147008,"id":"5ff5539fd665a2afa6765739"},{"myID":"162","name":"財團法人天主教聖功醫院","address":"高雄市苓雅區建國一路352號","lon":120.3239205,"lat":22.6330888,"id":"5ff5539fd665a2afa676573a"},{"myID":"163","name":"信義醫療財團法人高雄基督教醫院","address":"高雄市苓雅區華新街86號","lon":120.2963175,"lat":22.6139801,"id":"5ff5539fd665a2afa676573b"},{"myID":"164","name":"高雄市立聯合醫院","address":"高雄市鼓山區中華一路976號","lon":120.291194,"lat":22.654927,"id":"5ff5539fd665a2afa676573c"},{"myID":"165","name":"聖明醫院","address":"高雄市鼓山區鼓山三路52號","lon":120.2755406,"lat":22.6550513,"id":"5ff5539fd665a2afa676573d"},{"myID":"166","name":"正大醫院","address":"高雄市鼓山區鼓山三路128號之9、葆禎路263、265號","lon":120.2795962,"lat":22.6640859,"id":"5ff5539fd665a2afa676573e"},{"myID":"167","name":"三泰醫院","address":"高雄市鼓山區九如四路1030號","lon":120.2792447,"lat":22.6556751,"id":"5ff5539fd665a2afa676573f"},{"myID":"168","name":"生安婦產小兒科醫院","phone":5223138,"address":"高雄市鼓山區美術東二路177號B2-11F","lon":120.2882223,"lat":22.6624537,"id":"5ff5539fd665a2afa6765740"},{"myID":"169","name":"高雄市立旗津醫院〈委託阮綜合醫療社團法人阮綜合醫院經營〉","phone":5712891,"address":"高雄市旗津區廟前路1之1號","lon":120.2674085,"lat":22.6114965,"id":"5ff5539fd665a2afa6765741"},{"myID":"170","name":"正薪醫院","address":"高雄市前鎮區一心一路233號1-3樓","lon":120.317754,"lat":22.60791,"id":"5ff5539fd665a2afa6765742"},{"myID":"171","name":"瑞祥醫院","phone":7717503,"address":"高雄市前鎮區班超路92號地下1樓，地上1-7樓","lon":120.32575,"lat":22.601624,"id":"5ff5539fd665a2afa6765743"},{"myID":"172","name":"二聖醫院","address":"高雄市前鎮區二聖一路71號英明一路144號","lon":120.3251014,"lat":22.6119974,"id":"5ff5539fd665a2afa6765744"},{"myID":"173","name":"吳昆哲婦產小兒科醫院","address":"高雄市前鎮區民權二路430號","lon":120.314339,"lat":22.6120453,"id":"5ff5539fd665a2afa6765745"},{"myID":"154","name":"聖和醫院","phone":null,"address":"高雄市前金區青年二路6號1-4樓","lon":120.301735,"lat":22.620013,"id":"5ff5539fd665a2afa6765746"},{"myID":"158","name":"阮綜合醫療社團法人阮綜合醫院","address":"高雄市苓雅區成功一路162號.四維四路136號.166號.永昌街49號","lon":120.6660044,"lat":23.0108714,"id":"5ff5539fd665a2afa6765747"},{"myID":"176","name":"謝外科醫院","address":"高雄市三民區河北一路330號","lon":120.3031855,"lat":22.6368098,"id":"5ff5539fd665a2afa6765748"},{"myID":"174","name":"佳欣婦幼醫院","address":"高雄市前鎮區三多三路149號","lon":120.3102381,"lat":22.615646,"id":"5ff5539fd665a2afa6765749"},{"myID":"178","name":"全民醫院","address":"高雄市三民區九如二路501.503.505.507.509號1- 4樓","lon":120.2985516,"lat":22.6413741,"id":"5ff5539fd665a2afa676574a"},{"myID":"179","name":"文雄醫院","address":"高雄市三民區察哈爾二街132號地下1層地上1至4層","lon":120.2994899,"lat":22.6479975,"id":"5ff5539fd665a2afa676574b"},{"myID":"180","name":"民族醫院","address":"高雄市三民區民族一路880號(地下一樓.地上一至九樓)","lon":120.3173024,"lat":22.6685085,"id":"5ff5539fd665a2afa676574c"},{"myID":"181","name":"健生醫院","address":"高雄市三民區九如二路68號","lon":120.3116621,"lat":22.6407611,"id":"5ff5539fd665a2afa676574d"},{"myID":"182","name":"祐生醫院","address":"高雄市三民區建國三路60號","lon":120.2961286,"lat":22.6379608,"id":"5ff5539fd665a2afa676574e"},{"myID":"159","name":"乃榮醫療社團法人乃榮醫院","phone":null,"address":"高雄市苓雅區三多二路226.228號.地下1樓-5樓","lon":120.3187958,"lat":22.6187761,"id":"5ff5539fd665a2afa676574f"},{"myID":"184","name":"德謙醫院","address":"高雄市三民區九如二路18號地下1樓至6樓","lon":120.313181,"lat":22.64066,"id":"5ff5539fd665a2afa6765750"},{"myID":"185","name":"新高醫院","address":"高雄市三民區莊敬路288號1-9樓","lon":120.3181937,"lat":22.6498119,"id":"5ff5539fd665a2afa6765751"},{"myID":"186","name":"財團法人私立高雄醫學大學附設中和紀念醫院","address":"高雄市三民區十全一路100號","lon":120.310416,"lat":22.6477347,"id":"5ff5539fd665a2afa6765752"},{"myID":"187","name":"宏明醫院","address":"高雄市三民區建國三路415號","lon":120.2915164,"lat":22.6362756,"id":"5ff5539fd665a2afa6765753"},{"myID":"188","name":"右昌聯合醫院","address":"高雄市楠梓區軍校路930號B1-9F","lon":120.290911,"lat":22.713502,"id":"5ff5539fd665a2afa6765754"},{"myID":"177","name":"四季台安醫院","address":"高雄市三民區聯興路157號(地下1樓至6樓)、高雄市三民區聯興路145巷1號1-3樓","lon":120.312761,"lat":22.659355,"id":"5ff5539fd665a2afa6765755"},{"myID":"190","name":"健仁醫院","address":"高雄市楠梓區楠陽路136號朝明路130巷7弄1號1-5樓","lon":120.3286022,"lat":22.7238563,"id":"5ff5539fd665a2afa6765756"},{"myID":"191","name":"顏威裕醫院","address":"高雄市楠梓區後昌路826號1-7樓","lon":120.2956427,"lat":22.7111148,"id":"5ff5539fd665a2afa6765757"},{"myID":"192","name":"臨海醫院","phone":8012171,"address":"高雄市小港區沿海一路店鎮里461號一至七樓","lon":120.356824,"lat":22.561708,"id":"5ff5539fd665a2afa6765758"},{"myID":"193","name":"戴銘浚婦兒醫院","address":"高雄市小港區宏平路正苓里661號一至六樓","lon":120.351197,"lat":22.569615,"id":"5ff5539fd665a2afa6765759"},{"myID":"194","name":"安泰醫院","address":"高雄市小港區沿海一路219、221號漢民路253、255、257號(地下1樓~5樓)","lon":120.352431,"lat":22.5663705,"id":"5ff5539fd665a2afa676575a"},{"myID":"175","name":"愛仁醫療社團法人愛仁醫院","address":"高雄市三民區民族一路45號1樓至4樓及49、51號1樓至5樓","lon":120.313904,"lat":22.641667,"id":"5ff5539fd665a2afa676575b"},{"myID":"196","name":"馨蕙馨醫院","address":"高雄市左營區明誠二路541號","lon":120.303823,"lat":22.660976,"id":"5ff5539fd665a2afa676575c"},{"myID":"197","name":"行政院國軍退除役官兵輔導委員會高雄榮民總醫院","address":"高雄市左營區大中一路386號","lon":120.3223833,"lat":22.6797317,"id":"5ff5539fd665a2afa676575d"},{"myID":"198","name":"國軍高雄總醫院左營分院附設民眾診療服務處","address":"高雄市左營區軍校路553號","lon":120.2904141,"lat":22.7015284,"id":"5ff5539fd665a2afa676575e"},{"myID":"199","name":"柏仁醫院","address":"高雄市左營區博愛二路350號地下1樓至地上1-5樓","lon":120.3039485,"lat":22.6595956,"id":"5ff5539fd665a2afa676575f"},{"myID":"200","name":"博正醫院","address":"高雄市左營區博愛二路100號地下1樓至5樓","lon":120.3088659,"lat":22.6596293,"id":"5ff5539fd665a2afa6765760"},{"myID":"189","name":"長春醫院","address":"高雄市楠梓區右昌街331號1-5樓","lon":120.2891543,"lat":22.7143351,"id":"5ff5539fd665a2afa6765761"},{"myID":"202","name":"樂安醫院","address":"高雄市岡山區通校路300號","lon":120.2811364,"lat":22.7923473,"id":"5ff5539fd665a2afa6765762"},{"myID":"201","name":"劉光雄醫院","address":"高雄市岡山區岡山路380之1號","lon":120.2959246,"lat":22.7942191,"id":"5ff5539fd665a2afa6765763"},{"myID":"203","name":"國軍高雄總醫院岡山分院附設民眾診療服務處","address":"高雄市岡山區大義二路1號","lon":120.2855337,"lat":22.7894037,"id":"5ff5539fd665a2afa6765764"},{"myID":"204","name":"劉嘉修醫院","address":"高雄市岡山區岡山路428號1,2,3,6樓及 4 2 6號1,2,3樓","lon":120.2957623,"lat":22.7957276,"id":"5ff5539fd665a2afa6765765"},{"myID":"205","name":"高雄市立岡山醫院（委託秀傳醫療社團法人經營）","address":"高雄市岡山區壽天路12號","lon":120.294619,"lat":22.7966146,"id":"5ff5539fd665a2afa6765766"},{"myID":"206","name":"惠川醫院","address":"高雄市岡山區岡山路92號","lon":120.2967107,"lat":22.7880036,"id":"5ff5539fd665a2afa6765767"},{"myID":"195","name":"高雄市立小港醫院(委託財團法人私立高雄醫學大學經營)","address":"高雄市小港區山明里山明路482號B1-10樓","lon":120.3633173,"lat":22.5674103,"id":"5ff5539fd665a2afa6765768"},{"myID":"183","name":"南山醫院","address":"高雄市三民區建國三路151.153號1~3樓","lon":120.2985463,"lat":22.6377216,"id":"5ff5539fd665a2afa6765769"},{"myID":"210","name":"靜和醫院燕巢分院","address":"高雄市燕巢區深水里深水路3之20號","lon":120.4207093,"lat":22.7813639,"id":"5ff5539fd665a2afa676576a"},{"myID":"211","name":"義大醫療財團法人義大醫院","address":"高雄市燕巢區角宿里義大路1號","lon":120.3628399,"lat":22.7645226,"id":"5ff5539fd665a2afa676576b"},{"myID":"212","name":"泰和醫院","address":"高雄市橋頭區成功路101號","lon":120.3098788,"lat":22.7588154,"id":"5ff5539fd665a2afa676576c"},{"myID":"208","name":"溫有諒醫院","address":"高雄市路竹區延平路57號","lon":120.2584972,"lat":22.8580921,"id":"5ff5539fd665a2afa676576d"},{"myID":"214","name":"新高鳳醫院","phone":7472320,"address":"高雄市鳳山區光遠路360號","lon":120.3587884,"lat":22.6262008,"id":"5ff5539fd665a2afa676576e"},{"myID":"215","name":"仁惠婦幼醫院","address":"高雄市鳳山區自由路81號","lon":120.3533596,"lat":22.6258233,"id":"5ff5539fd665a2afa676576f"},{"myID":"216","name":"惠德醫院","address":"高雄市鳳山區福祥街81號及同號2樓","lon":120.3251684,"lat":22.5920202,"id":"5ff5539fd665a2afa6765770"},{"myID":"207","name":"高新醫院","address":"高雄市路竹區中山路627號","lon":120.2578569,"lat":22.8630823,"id":"5ff5539fd665a2afa6765771"},{"myID":"218","name":"大東醫院","address":"高雄市鳳山區光遠路171-2號","lon":120.3619182,"lat":22.6253849,"id":"5ff5539fd665a2afa6765772"},{"myID":"219","name":"馬光中醫醫院","phone":7478055,"address":"高雄市鳳山區維新路122號1、2樓","lon":120.3611495,"lat":22.6245787,"id":"5ff5539fd665a2afa6765773"},{"myID":"220","name":"高雄市立鳳山醫院（委託長庚醫療財團法人經營）","address":"高雄市鳳山區經武路42號","lon":120.3631044,"lat":22.6285073,"id":"5ff5539fd665a2afa6765774"},{"myID":"209","name":"長佑醫院","address":"高雄市阿蓮區中山路150號","lon":120.3287469,"lat":22.8795802,"id":"5ff5539fd665a2afa6765775"},{"myID":"217","name":"優生婦產科醫院","address":"高雄市鳳山區自由路189號","lon":120.351021,"lat":22.625555,"id":"5ff5539fd665a2afa6765776"},{"myID":"223","name":"樂生婦幼醫院","phone":7862688,"address":"高雄市大寮區鳳林三路532號","lon":120.3953959,"lat":22.6065442,"id":"5ff5539fd665a2afa6765777"},{"myID":"213","name":"杏和醫院","address":"高雄市鳳山區五甲二路389號、470號1樓","lon":120.3355853,"lat":22.5977854,"id":"5ff5539fd665a2afa6765778"},{"myID":"225","name":"建佑醫院","address":"高雄市林園區東林西路360、362號、364巷10號、399號、407巷7號","lon":120.3864095,"lat":22.5036757,"id":"5ff5539fd665a2afa6765779"},{"myID":"226","name":"長庚醫療財團法人高雄長庚紀念醫院","address":"高雄市鳥松區大埤路123號","lon":120.3572375,"lat":22.6556627,"id":"5ff5539fd665a2afa676577a"},{"myID":"222","name":"瑞生醫院","phone":77838843,"address":"高雄市大寮區鳳林四路192號","lon":120.3847689,"lat":22.6176492,"id":"5ff5539fd665a2afa676577b"},{"myID":"228","name":"廣聖醫療社團法人廣聖醫院","address":"高雄市旗山區中華路618號1-6樓","lon":120.485433,"lat":22.8849861,"id":"5ff5539fd665a2afa676577c"},{"myID":"229","name":"重安醫院","address":"高雄市旗山區大仁街18號","lon":120.4847621,"lat":22.8830217,"id":"5ff5539fd665a2afa676577d"},{"myID":"230","name":"溪洲醫院","address":"高雄市旗山區延平一路412、408號","lon":120.483207,"lat":22.8927625,"id":"5ff5539fd665a2afa676577e"},{"myID":"231","name":"博愛醫院","address":"高雄市旗山區延平一路689號","lon":120.483231,"lat":22.883632,"id":"5ff5539fd665a2afa676577f"},{"myID":"232","name":"三聖醫院","address":"高雄市美濃區合和里合和路56號及58號，成功路182-2號","lon":120.548117,"lat":22.8940591,"id":"5ff5539fd665a2afa6765780"},{"myID":"233","name":"三軍總醫院附設基隆民眾診療服務處","address":"基隆市仁愛區孝二路39號中正區正榮街100號","lon":121.739416,"lat":25.1288232,"id":"5ff5539fd665a2afa6765781"},{"myID":"234","name":"行政院衛生署基隆醫院","address":"基隆市信義區信二路268號","lon":121.74818,"lat":25.130232,"id":"5ff5539fd665a2afa6765782"},{"myID":"221","name":"財團法人台灣省私立高雄仁愛之家附設慈惠醫院","address":"高雄市大寮區鳳屏一路509號","lon":120.3941306,"lat":22.6372186,"id":"5ff5539fd665a2afa6765783"},{"myID":"236","name":"維德醫院","address":"基隆市中正區調和街210號","lon":121.7962455,"lat":25.1374032,"id":"5ff5539fd665a2afa6765784"},{"myID":"237","name":"新昆明醫院","phone":null,"address":"基隆市中正區中正路30號","lon":121.744841,"lat":25.133136,"id":"5ff5539fd665a2afa6765785"},{"myID":"238","name":"長庚醫療財團法人基隆長庚紀念醫院","address":"基隆市安樂區麥金路222號","lon":121.72236,"lat":25.120702,"id":"5ff5539fd665a2afa6765786"},{"myID":"239","name":"南光神經精神科醫院","phone":null,"address":"基隆市安樂區基金一路91號","lon":121.7184988,"lat":25.1383046,"id":"5ff5539fd665a2afa6765787"},{"myID":"240","name":"醫療財團法人台灣區煤礦業基金會台灣礦工醫院","address":"基隆市暖暖區源遠路29號","lon":121.7330656,"lat":25.1079649,"id":"5ff5539fd665a2afa6765788"},{"myID":"241","name":"平和醫療社團法人和平醫院","address":"新竹市北區和平路86-1號","lon":120.9556374,"lat":24.8088916,"id":"5ff5539fd665a2afa6765789"},{"myID":"242","name":"財團法人台灣省私立桃園仁愛之家附設新竹新生醫院","address":"新竹市北區興南里西門街120號","lon":120.963392,"lat":24.8015488,"id":"5ff5539fd665a2afa676578a"},{"myID":"243","name":"國軍新竹地區醫院附設民眾診療服務處","address":"新竹市北區武陵路3號","lon":120.969531,"lat":24.8216051,"id":"5ff5539fd665a2afa676578b"},{"myID":"244","name":"新中興醫院","address":"新竹市北區興南街43號","lon":120.9628977,"lat":24.8017976,"id":"5ff5539fd665a2afa676578c"},{"myID":"227","name":"行政院衛生署旗山醫院","address":"高雄市旗山區中學路60號","lon":120.4832534,"lat":22.8807893,"id":"5ff5539fd665a2afa676578d"},{"myID":"246","name":"南門綜合醫院","address":"新竹市東區成功里林森路20號","lon":120.969653,"lat":24.8021381,"id":"5ff5539fd665a2afa676578e"},{"myID":"247","name":"財團法人馬偕紀念醫院新竹分院","address":"新竹市東區光復里光復路二段690號","lon":120.9906659,"lat":24.8000386,"id":"5ff5539fd665a2afa676578f"},{"myID":"249","name":"世華醫院","address":"嘉義市西區仁愛路365號","lon":120.4420749,"lat":23.4756624,"id":"5ff5539fd665a2afa6765791"},{"myID":"250","name":"安心醫院","address":"嘉義市西區民族路666號","lon":120.4441989,"lat":23.4755901,"id":"5ff5539fd665a2afa6765792"},{"myID":"251","name":"慶昇醫院","address":"嘉義市西區新榮路339、339-1號","lon":120.4441126,"lat":23.4793953,"id":"5ff5539fd665a2afa6765793"},{"myID":"252","name":"台中榮民總醫院嘉義分院","address":"嘉義市西區劉厝里世賢路二段600號","lon":120.4229776,"lat":23.4675962,"id":"5ff5539fd665a2afa6765794"},{"myID":"253","name":"行政院衛生署嘉義醫院","address":"嘉義市西區北港路312號","lon":120.4356672,"lat":23.4767644,"id":"5ff5539fd665a2afa6765795"},{"myID":"254","name":"祥太醫院","address":"嘉義市西區書院里延平街490號  永和街116號","lon":120.4400379,"lat":23.4758463,"id":"5ff5539fd665a2afa6765796"},{"myID":"255","name":"陳仁德醫院","address":"嘉義市西區林森西路285號","lon":120.4470935,"lat":23.4837425,"id":"5ff5539fd665a2afa6765797"},{"myID":"256","name":"盧亞人醫院","address":"嘉義市西區民權路四0六號","lon":120.4671296,"lat":23.4839862,"id":"5ff5539fd665a2afa6765798"},{"myID":"257","name":"建興醫院","address":"嘉義市東區內安里中山路148號","lon":120.4541007,"lat":23.481587,"id":"5ff5539fd665a2afa6765799"},{"myID":"258","name":"財團法人天主教聖馬爾定醫院","address":"嘉義市東區短竹里大雅路二段565號","lon":120.4659544,"lat":23.4767981,"id":"5ff5539fd665a2afa676579a"},{"myID":"259","name":"戴德森醫療財團法人嘉義基督教醫院","address":"嘉義市東區中庄里忠孝路539號；東區後湖里保建街100號；東區頂庄里忠孝路642號","lon":120.4501144,"lat":23.4994772,"id":"5ff5539fd665a2afa676579b"},{"myID":"260","name":"陽明醫院","address":"嘉義市東區吳鳳北路252號","lon":120.4531772,"lat":23.4798829,"id":"5ff5539fd665a2afa676579c"},{"myID":"261","name":"國立台灣大學醫學院附設醫院金山分院","phone":24989898,"address":"新北市金山區五湖里南勢51號","lon":121.628174,"lat":25.219673,"id":"5ff5539fd665a2afa676579d"},{"myID":"262","name":"板新醫院","address":"新北市板橋區中正路189號","lon":121.4564951,"lat":25.016877,"id":"5ff5539fd665a2afa676579e"},{"myID":"245","name":"國立台灣大學醫學院附設醫院新竹分院","address":"新竹市北區金華里經國路一段442巷25號","lon":120.9799254,"lat":24.8169834,"id":"5ff5539fd665a2afa676579f"},{"myID":"263","name":"蕭中正醫院","address":"新北市板橋區南雅南路一段15號之1、17號、19號(1、2、3、4樓)","lon":121.4564159,"lat":25.0069098,"id":"5ff5539fd665a2afa67657a0"},{"myID":"264","name":"醫療財團法人徐元智先生醫藥基金會亞東紀念醫院","address":"新北市板橋區南雅南路二段二十一號","lon":121.4527715,"lat":24.9972647,"id":"5ff5539fd665a2afa67657a1"},{"myID":"265","name":"中英醫療社團法人板英醫院","phone":82513923,"address":"新北市板橋區文化路1段267、269、271號1-4樓","lon":121.464585,"lat":25.018406,"id":"5ff5539fd665a2afa67657a2"},{"myID":"266","name":"中英醫療社團法人中英醫院","phone":22563584,"address":"新北市板橋區文化路一段196號1~4樓","lon":121.4662332,"lat":25.0198982,"id":"5ff5539fd665a2afa67657a3"},{"myID":"267","name":"板橋中興醫院","phone":229590707,"address":"新北市板橋區忠孝路十五號","lon":121.4601586,"lat":25.0019596,"id":"5ff5539fd665a2afa67657a4"},{"myID":"269","name":"板橋國泰醫院","phone":229583333,"address":"新北市板橋區忠孝路5、7、9、11號一至三樓。","lon":121.4599287,"lat":25.0019277,"id":"5ff5539fd665a2afa67657a5"},{"myID":"270","name":"國泰醫療財團法人汐止國泰綜合醫院","phone":26482121,"address":"新北市汐止區建成路59巷2號地下4樓至地上12樓","lon":121.661038,"lat":25.0734893,"id":"5ff5539fd665a2afa67657a6"},{"myID":"271","name":"瑞芳礦工醫院","phone":24974101,"address":"新北市瑞芳區一坑路71之2號","lon":121.8021779,"lat":25.1085998,"id":"5ff5539fd665a2afa67657a7"},{"myID":"272","name":"宏慈療養院","phone":222151177,"address":"新北市新店區安泰路157號","lon":121.4881907,"lat":24.9387459,"id":"5ff5539fd665a2afa67657a8"},{"myID":"273","name":"宏濟神經精神科醫院","address":"新北市新店區安忠路57巷5號","lon":121.513963,"lat":24.9588963,"id":"5ff5539fd665a2afa67657a9"},{"myID":"274","name":"財團法人天主教耕莘醫院","address":"新北市新店區中正路362號","lon":121.5357523,"lat":24.976293,"id":"5ff5539fd665a2afa67657aa"},{"myID":"275","name":"財團法人佛教慈濟綜合醫院台北分院","address":"新北市新店區建國路289號地下1至3樓至地上1至15樓","lon":121.5358405,"lat":24.985978,"id":"5ff5539fd665a2afa67657ab"},{"myID":"224","name":"霖園醫院","address":"高雄市林園區林園北路244號","lon":120.3949418,"lat":22.5076566,"id":"5ff5539fd665a2afa67657ac"},{"myID":"268","name":"德全醫院","address":"新北市板橋區民權路5號1~2樓、7號1、2、4樓、9號1、2、4樓、11號1~4樓","lon":121.459784,"lat":25.014485,"id":"5ff5539fd665a2afa67657ad"},{"myID":"278","name":"永和振興醫院","address":"新北市永和區信義路18號1至6樓、地下1樓","lon":121.559299,"lat":25.030326,"id":"5ff5539fd665a2afa67657ae"},{"myID":"235","name":"基隆市立醫院","address":"基隆市信義區東信路282號","lon":121.7619835,"lat":25.1296063,"id":"5ff5539fd665a2afa67657af"},{"myID":"280","name":"柯瑞祥婦產科醫院","address":"新北市永和區福和路278號","lon":121.517858,"lat":25.0075648,"id":"5ff5539fd665a2afa67657b0"},{"myID":"281","name":"永和復康醫院","phone":229240925,"address":"新北市永和區中和路575．577．579號1~4樓","lon":121.5118919,"lat":25.0038057,"id":"5ff5539fd665a2afa67657b1"},{"myID":"282","name":"佑林醫院","phone":22250180,"address":"新北市中和區中山路三段71、73號一至四樓","lon":121.4763749,"lat":25.0055277,"id":"5ff5539fd665a2afa67657b2"},{"myID":"277","name":"同仁醫院","address":"新北市新店區民權路89號","lon":121.5376173,"lat":24.9828873,"id":"5ff5539fd665a2afa67657b3"},{"myID":"284","name":"祥顥醫院","phone":29468795,"address":"新北市中和區景平路412．412之1號地上1-5層","lon":121.5081688,"lat":24.9932849,"id":"5ff5539fd665a2afa67657b4"},{"myID":"285","name":"春暉醫院","address":"新北市中和區中山路二段551號地下一樓至地上一至六樓","lon":121.4809402,"lat":25.0054852,"id":"5ff5539fd665a2afa67657b5"},{"myID":"286","name":"怡和醫院","phone":22450009,"address":"新北市中和區連城路49號一至四樓","lon":121.4985247,"lat":25.0018899,"id":"5ff5539fd665a2afa67657b6"},{"myID":"287","name":"誠泰醫院","phone":22236515,"address":"新北市中和區連城路497號一、二樓，四九九、五0一號一至四樓","lon":121.482624,"lat":24.99536,"id":"5ff5539fd665a2afa67657b7"},{"myID":"276","name":"新北仁康醫院","address":"新北市新店區安康路2段323號地上1至2樓","lon":121.4997383,"lat":24.9555591,"id":"5ff5539fd665a2afa67657b8"},{"myID":"289","name":"恩樺醫院","phone":22639955,"address":"新北市土城區中央路一段7-18號1至10樓","lon":121.44926,"lat":24.991913,"id":"5ff5539fd665a2afa67657b9"},{"myID":"290","name":"元復醫院","address":"新北市土城區中央路2段318．320．322．324號1至4樓","lon":121.4403173,"lat":24.9728932,"id":"5ff5539fd665a2afa67657ba"},{"myID":"291","name":"廣川醫院","address":"新北市土城區裕民路274．276．278號","lon":121.454888,"lat":24.982216,"id":"5ff5539fd665a2afa67657bb"},{"myID":"292","name":"仁安醫院","phone":22627088,"address":"新北市土城區中央路1段六二．六四號1-5樓 中華路一段一號2-5樓三號1-5樓","lon":121.4481132,"lat":24.9904786,"id":"5ff5539fd665a2afa67657bc"},{"myID":"293","name":"行天宮醫療志業醫療財團法人恩主公醫院","address":"新北市三峽區復興路399號、中山路198號","lon":121.35662,"lat":24.9404629,"id":"5ff5539fd665a2afa67657bd"},{"myID":"294","name":"永聖醫療社團法人文化醫院","phone":26732885,"address":"新北市三峽區介壽路1段199號","lon":121.3783436,"lat":24.9307144,"id":"5ff5539fd665a2afa67657be"},{"myID":"295","name":"靜養醫院","phone":26710427,"address":"新北市三峽區中山路四五九巷92號一．二樓","lon":121.353929,"lat":24.9358847,"id":"5ff5539fd665a2afa67657bf"},{"myID":"296","name":"仁愛醫院","address":"新北市樹林區文化街9號(地下1、2樓及地上1樓至8樓)","lon":121.419994,"lat":24.9872046,"id":"5ff5539fd665a2afa67657c0"},{"myID":"297","name":"名恩療養院","phone":26701092,"address":"新北市鶯歌區鶯桃路2段62、64號1~4樓","lon":121.32492,"lat":24.973262,"id":"5ff5539fd665a2afa67657c1"},{"myID":"298","name":"祐民醫院","address":"新北市三重區重新路二段2號、6號地下1層至地上9層","lon":121.4998821,"lat":25.0628014,"id":"5ff5539fd665a2afa67657c2"},{"myID":"299","name":"天德堂中醫醫院","address":"新北市三重區大同南路3號","lon":121.4955963,"lat":25.0611761,"id":"5ff5539fd665a2afa67657c3"},{"myID":"300","name":"宏仁醫院","phone":29788877,"address":"新北市三重區三和路二段186、188、190、192、194、196號一至四樓","lon":121.4987383,"lat":25.0688793,"id":"5ff5539fd665a2afa67657c4"},{"myID":"301","name":"三重中興醫院","phone":29959680,"address":"新北市三重區中興北街21號","lon":121.4696533,"lat":25.0465158,"id":"5ff5539fd665a2afa67657c5"},{"myID":"283","name":"行政院衛生署雙和醫院(委託台北醫學大學興建經營)","phone":22490088,"address":"新北市中和區中正路291號醫療大樓地下2層至地上12層","lon":121.4936519,"lat":24.9931046,"id":"5ff5539fd665a2afa67657c6"},{"myID":"302","name":"新北市立聯合醫院","address":"新北市三重區中山路2號、板橋區英士路198號","lon":121.4576694,"lat":25.0235828,"id":"5ff5539fd665a2afa67657c7"},{"myID":"304","name":"行政院衛生署台北醫院","address":"新北市新莊區思源路127號","lon":121.45958,"lat":25.0429649,"id":"5ff5539fd665a2afa67657c8"},{"myID":"303","name":"行政院衛生署樂生療養院","address":"新北市新莊區中正路794號及桃園縣龜山鄉萬壽路1段50巷2號","lon":121.392252,"lat":25.016172,"id":"5ff5539fd665a2afa67657c9"},{"myID":"305","name":"新莊英仁醫院","address":"新北市新莊區大觀街46-2號","lon":121.453801,"lat":25.0357606,"id":"5ff5539fd665a2afa67657ca"},{"myID":"288","name":"中祥醫院","address":"新北市中和區中山路二段138號〈二至四樓〉?140及142號〈一至四樓〉","lon":121.502121,"lat":25.003217,"id":"5ff5539fd665a2afa67657cc"},{"myID":"307","name":"新泰綜合醫院","phone":9962121,"address":"新北市新莊區新泰路157號","lon":121.4477683,"lat":25.0368953,"id":"5ff5539fd665a2afa67657cd"},{"myID":"310","name":"新仁醫療社團法人新仁醫院","address":"新北市新莊區中正路395號1-5樓、397-3號、397-4號、福海街24巷1號1樓","lon":121.4451642,"lat":25.034593,"id":"5ff5539fd665a2afa67657ce"},{"myID":"306","name":"益民醫院","address":"新北市新莊區中港路127號1-4樓","lon":121.4551363,"lat":25.0401053,"id":"5ff5539fd665a2afa67657cf"},{"myID":"311","name":"全民醫院","address":"新北市蘆洲區三民路7號","lon":121.4757334,"lat":25.0820714,"id":"5ff5539fd665a2afa67657d0"},{"myID":"312","name":"行政院衛生署八里療養院","phone":226101660,"address":"新北市八里區華富山33號","lon":121.4197174,"lat":25.1418353,"id":"5ff5539fd665a2afa67657d1"},{"myID":"308","name":"財團法人台灣省私立台北仁濟院附設仁濟療養院新莊分院","address":"新北市新莊區瓊林路100巷27號","lon":121.44273,"lat":25.0269484,"id":"5ff5539fd665a2afa67657d2"},{"myID":"309","name":"大順醫院","address":"新北市新莊區中正路215號一至四樓","lon":121.4510307,"lat":25.0356762,"id":"5ff5539fd665a2afa67657d3"},{"myID":"313","name":"財團法人基督長老教會馬偕紀念醫院淡水分院","address":"新北市淡水區民生路45號、民權路47號B1~7樓","lon":121.4598896,"lat":25.1377331,"id":"5ff5539fd665a2afa67657d4"},{"myID":"315","name":"公祥醫院","address":"新北市淡水區英專路21巷25．27號、中山路38．40號","lon":121.4442717,"lat":25.1698428,"id":"5ff5539fd665a2afa67657d6"},{"myID":"319","name":"同慶堂中醫醫院","address":"桃園縣中壢市中正路357號","lon":121.216414,"lat":24.955252,"id":"5ff5539fd665a2afa67657d7"},{"myID":"320","name":"天成醫療社團法人天晟醫院","address":"桃園縣中壢市延平路155號","lon":121.2290242,"lat":24.9626431,"id":"5ff5539fd665a2afa67657d8"},{"myID":"321","name":"宏其醫療社團法人宏其婦幼醫院","address":"桃園縣中壢市元化路223號","lon":121.2270049,"lat":24.9612438,"id":"5ff5539fd665a2afa67657d9"},{"myID":"322","name":"財團法人景仁醫院","address":"桃園縣中壢市中美路95號","lon":121.221535,"lat":24.959636,"id":"5ff5539fd665a2afa67657da"},{"myID":"316","name":"長青醫院","address":"新北市淡水區糞箕湖1－5號","lon":121.4827612,"lat":25.1711286,"id":"5ff5539fd665a2afa67657db"},{"myID":"323","name":"華興醫院","address":"桃園縣中壢市中北路二段316號","lon":121.2299808,"lat":24.9531168,"id":"5ff5539fd665a2afa67657dd"},{"myID":"317","name":"北新醫院","phone":26209199,"address":"新北市淡水區忠寮里演戲埔腳1之2號","lon":121.4757229,"lat":25.193695,"id":"5ff5539fd665a2afa67657de"},{"myID":"324","name":"中壢長榮醫院","address":"桃園縣中壢市環中東路150號","lon":121.2371095,"lat":24.9493569,"id":"5ff5539fd665a2afa67657df"},{"myID":"328","name":"祐民醫院","address":"桃園縣中壢市民族路二段180號","lon":121.2037475,"lat":24.9573989,"id":"5ff5539fd665a2afa67657e1"},{"myID":"329","name":"新國民醫院","address":"桃園縣中壢市復興路152號","lon":121.2235318,"lat":24.9541359,"id":"5ff5539fd665a2afa67657e2"},{"myID":"330","name":"秉坤婦幼醫院","address":"桃園縣平鎮市延平路二段129號","lon":121.2114718,"lat":24.9482113,"id":"5ff5539fd665a2afa67657e3"},{"myID":"331","name":"新永和醫院","address":"桃園縣平鎮市延平路一段81號","lon":121.2195454,"lat":24.9514632,"id":"5ff5539fd665a2afa67657e4"},{"myID":"332","name":"陽明醫院","address":"桃園縣平鎮市延平路二段56號","lon":121.2124714,"lat":24.950095,"id":"5ff5539fd665a2afa67657e5"},{"myID":"333","name":"壢新醫院","address":"桃園縣平鎮市廣泰路77號","lon":121.2053006,"lat":24.9466922,"id":"5ff5539fd665a2afa67657e6"},{"myID":"325","name":"仁祥醫院","address":"桃園縣中壢市中美路13.15.17號1-6樓","lon":121.2274164,"lat":24.9578328,"id":"5ff5539fd665a2afa67657e7"},{"myID":"326","name":"永康醫院","address":"桃園縣中壢市裕民街13號","lon":121.224616,"lat":24.95799,"id":"5ff5539fd665a2afa67657e8"},{"myID":"327","name":"承安醫院","address":"桃園縣中壢市延平路643號","lon":121.2219464,"lat":24.9533302,"id":"5ff5539fd665a2afa67657e9"},{"myID":"334","name":"宋俊宏婦幼醫院","address":"桃園縣平鎮市民族路199號","lon":121.203366,"lat":24.956885,"id":"5ff5539fd665a2afa67657ea"},{"myID":"336","name":"龍潭敏盛醫院","address":"桃園縣龍潭鄉中豐路168號","lon":121.2136776,"lat":24.8750172,"id":"5ff5539fd665a2afa67657eb"},{"myID":"339","name":"行政院衛生署桃園醫院新屋分院","address":"桃園縣新屋鄉新屋村14鄰新福二路6號","lon":121.1070129,"lat":24.9696361,"id":"5ff5539fd665a2afa67657ec"},{"myID":"340","name":"德仁醫院","address":"桃園縣桃園市桃鶯路245號","lon":121.3186216,"lat":24.9840741,"id":"5ff5539fd665a2afa67657ed"},{"myID":"341","name":"振生醫院","address":"桃園縣桃園市三民路二段288號","lon":121.3094884,"lat":24.9997188,"id":"5ff5539fd665a2afa67657ee"},{"myID":"337","name":"天成醫院","address":"桃園縣楊梅市中山北路一段356號","lon":121.1575878,"lat":24.9085829,"id":"5ff5539fd665a2afa67657ef"},{"myID":"335","name":"國軍桃園總醫院附設民眾診療服務處","address":"桃園縣龍潭鄉中興路168號","lon":121.1857579,"lat":24.9157074,"id":"5ff5539fd665a2afa67657f0"},{"myID":"338","name":"怡仁綜合醫院","address":"桃園縣楊梅市楊新北路三二一巷30號","lon":121.1551555,"lat":24.9146882,"id":"5ff5539fd665a2afa67657f1"},{"myID":"342","name":"行政院衛生署桃園療養院","address":"桃園縣桃園市龍壽街七一號","lon":121.2688922,"lat":24.9795284,"id":"5ff5539fd665a2afa67657f2"},{"myID":"343","name":"桃新醫院","address":"桃園縣桃園市復興路195號、桃園縣桃園市博愛路22號","lon":121.3095138,"lat":24.9947956,"id":"5ff5539fd665a2afa67657f3"},{"myID":"344","name":"行政院衛生署桃園醫院","address":"桃園縣桃園市中山路一四九二號","lon":121.2695107,"lat":24.9774886,"id":"5ff5539fd665a2afa67657f4"},{"myID":"345","name":"敏盛綜合醫院","address":"桃園縣桃園市經國路168號","lon":121.3061073,"lat":25.0162835,"id":"5ff5539fd665a2afa67657f5"},{"myID":"349","name":"長庚醫療財團法人林口長庚紀念醫院","address":"桃園縣龜山鄉公西村復興街5號、5之7號","lon":121.3676923,"lat":25.0618495,"id":"5ff5539fd665a2afa67657f6"},{"myID":"350","name":"大明醫院","address":"桃園縣龜山鄉萬壽路二段964號、966號","lon":121.3377067,"lat":24.9953099,"id":"5ff5539fd665a2afa67657f7"},{"myID":"351","name":"長庚醫療財團法人桃園長庚紀念醫院","address":"桃園縣龜山鄉舊路村頂湖路123號、123之1號","lon":121.3665339,"lat":25.0298436,"id":"5ff5539fd665a2afa67657f8"},{"myID":"352","name":"居善醫院","address":"桃園縣大園鄉南港村大觀路910號","lon":121.1656367,"lat":25.0585521,"id":"5ff5539fd665a2afa67657f9"},{"myID":"353","name":"大園敏盛醫院","address":"桃園縣大園鄉華中街二號","lon":121.1960512,"lat":25.0622668,"id":"5ff5539fd665a2afa67657fa"},{"myID":"354","name":"新仁醫院","phone":35552039,"address":"新竹縣竹北市博愛街331號","lon":121.0078637,"lat":24.835618,"id":"5ff5539fd665a2afa67657fb"},{"myID":"355","name":"大安醫院","address":"新竹縣竹北市博愛街318巷6號","lon":121.0080437,"lat":24.8346478,"id":"5ff5539fd665a2afa67657fc"},{"myID":"356","name":"東元綜合醫院","phone":35527000,"address":"新竹縣竹北市縣政二路六九號（竹北市光明九路九之一號牙科、精神科門診部）","lon":121.0141787,"lat":24.8229019,"id":"5ff5539fd665a2afa67657fd"},{"myID":"357","name":"天主教仁慈醫療財團法人仁慈醫院","address":"新竹縣湖口鄉忠孝路29號","lon":121.045449,"lat":24.900638,"id":"5ff5539fd665a2afa67657fe"},{"myID":"347","name":"台北榮民總醫院桃園分院","address":"桃園縣桃園市成功路三段100號","lon":121.3250233,"lat":25.0036683,"id":"5ff5539fd665a2afa67657ff"},{"myID":"359","name":"國立台灣大學醫學院附設醫院竹東分院","address":"新竹縣竹東鎮至善路52號","lon":121.0936887,"lat":24.7187505,"id":"5ff5539fd665a2afa6765800"},{"myID":"348","name":"福太醫院","address":"桃園縣桃園市民族路85號","lon":121.30931,"lat":24.9912629,"id":"5ff5539fd665a2afa6765801"},{"myID":"360","name":"台北榮民總醫院新竹分院","phone":35962134,"address":"新竹縣竹東鎮中豐路一段81號","lon":121.0993401,"lat":24.7228604,"id":"5ff5539fd665a2afa6765802"},{"myID":"346","name":"財團法人天主教聖保祿修女會醫院","address":"桃園縣桃園市建新街123號","lon":121.3119715,"lat":24.9823528,"id":"5ff5539fd665a2afa6765803"},{"myID":"358","name":"培靈關西醫院","address":"新竹縣關西鎮新富里11鄰石門33之1號","lon":121.1900223,"lat":24.7570027,"id":"5ff5539fd665a2afa6765804"},{"myID":"362","name":"宏安中醫醫院","phone":35965228,"address":"新竹縣竹東鎮仁愛路342號","lon":121.090877,"lat":24.7382931,"id":"5ff5539fd665a2afa6765805"},{"myID":"365","name":"國立陽明大學附設醫院","address":"宜蘭縣宜蘭市新民路152號","lon":121.754158,"lat":24.7577719,"id":"5ff5539fd665a2afa6765806"},{"myID":"366","name":"杏和醫院","phone":9886996,"address":"宜蘭縣礁溪鄉礁溪路4段129號","lon":121.769189,"lat":24.8205585,"id":"5ff5539fd665a2afa6765807"},{"myID":"361","name":"林醫院","phone":35962316,"address":"新竹縣竹東鎮東林路76號","lon":121.0911769,"lat":24.7369692,"id":"5ff5539fd665a2afa6765808"},{"myID":"368","name":"台北榮民總醫院員山分院","phone":39222141,"address":"宜蘭縣員山鄉榮光路386號","lon":121.6872114,"lat":24.7219986,"id":"5ff5539fd665a2afa6765809"},{"myID":"369","name":"宜蘭普門醫療財團法人普門醫院","address":"宜蘭縣員山鄉深溝村尚深路91號","lon":121.721564,"lat":24.721346,"id":"5ff5539fd665a2afa676580a"},{"myID":"370","name":"財團法人羅許基金會羅東博愛醫院","phone":39543131,"address":"宜蘭縣羅東鎮南昌街81、83號站前南路61、63號","lon":121.7743194,"lat":24.6729246,"id":"5ff5539fd665a2afa676580b"},{"myID":"371","name":"財團法人天主教靈醫會羅東聖母醫院","phone":39544106,"address":"宜蘭縣羅東鎮中正南路160號","lon":121.7708022,"lat":24.6713625,"id":"5ff5539fd665a2afa676580c"},{"myID":"372","name":"建生醫院","phone":39962246,"address":"宜蘭縣蘇澳鎮中山路一段218號","lon":121.8462571,"lat":24.595954,"id":"5ff5539fd665a2afa676580d"},{"myID":"363","name":"竹信醫院","phone":35962998,"address":"新竹縣竹東鎮仁愛路一九六號","lon":121.0907806,"lat":24.734521,"id":"5ff5539fd665a2afa676580e"},{"myID":"364","name":"財團法人蘭陽仁愛醫院","phone":39355366,"address":"宜蘭縣宜蘭市中山路二段260號","lon":121.7544171,"lat":24.7487543,"id":"5ff5539fd665a2afa676580f"},{"myID":"367","name":"海天醫療社團法人海天醫院","address":"宜蘭縣壯圍鄉古亭路23-9號","lon":121.8106035,"lat":24.7789321,"id":"5ff5539fd665a2afa6765810"},{"myID":"373","name":"台北榮民總醫院蘇澳分院","phone":39905106,"address":"宜蘭縣蘇澳鎮蘇濱路1段301號","lon":121.849305,"lat":24.613535,"id":"5ff5539fd665a2afa6765811"},{"myID":"374","name":"大眾醫院","address":"苗栗縣竹南鎮光復路304號","lon":120.8795438,"lat":24.6907585,"id":"5ff5539fd665a2afa6765812"},{"myID":"376","name":"財團法人為恭紀念醫院","address":"苗栗縣頭份鎮信義路128號","lon":120.907311,"lat":24.6869812,"id":"5ff5539fd665a2afa6765813"},{"myID":"377","name":"崇仁醫院","phone":663185,"address":"苗栗縣頭份鎮東興路110號1、2樓","lon":120.9058462,"lat":24.683428,"id":"5ff5539fd665a2afa6765814"},{"myID":"378","name":"重光醫院","address":"苗栗縣頭份鎮中華路1037、1039、1041、1043  號","lon":120.9081851,"lat":24.6864751,"id":"5ff5539fd665a2afa6765815"},{"myID":"375","name":"慈祐醫院","address":"苗栗縣竹南鎮民治街17號","lon":120.878875,"lat":24.684762,"id":"5ff5539fd665a2afa6765816"},{"myID":"379","name":"通霄光田醫院","address":"苗栗縣通霄鎮中山路88號","lon":120.67846,"lat":24.4889662,"id":"5ff5539fd665a2afa6765817"},{"myID":"380","name":"李綜合醫療社團法人苑裡李綜合醫院","phone":862387,"address":"苗栗縣苑裡鎮和平路168號、苗栗縣苑裡鎮中華路137號","lon":120.653556,"lat":24.43799,"id":"5ff5539fd665a2afa6765818"},{"myID":"381","name":"大川醫院","phone":37205501,"address":"苗栗縣苗栗市中正路416號","lon":120.8221208,"lat":24.5605009,"id":"5ff5539fd665a2afa6765819"},{"myID":"383","name":"大千綜合醫院南勢分院","phone":369936,"address":"苗栗縣苗栗市南勢里南勢52號","lon":120.7813882,"lat":24.600968,"id":"5ff5539fd665a2afa676581b"},{"myID":"384","name":"財團法人台灣省私立桃園仁愛之家附設苗栗新生醫院","phone":37320988,"address":"苗栗縣苗栗市維新里新東街117號","lon":120.8206725,"lat":24.5515492,"id":"5ff5539fd665a2afa676581c"},{"myID":"386","name":"協和醫院","phone":37352631,"address":"苗栗縣苗栗市中正路1367號","lon":120.8174152,"lat":24.5412601,"id":"5ff5539fd665a2afa676581e"},{"myID":"389","name":"漢銘醫院","address":"彰化縣彰化市南興里中山路一段366號","lon":120.5356284,"lat":24.0612427,"id":"5ff5539fd665a2afa676581f"},{"myID":"390","name":"秀傳醫療社團法人秀傳紀念醫院","address":"彰化縣彰化市南瑤里中山路1段542號","lon":120.5374429,"lat":24.0647705,"id":"5ff5539fd665a2afa6765820"},{"myID":"385","name":"行政院衛生署苗栗醫院","address":"苗栗縣苗栗市為公路747號","lon":120.8410317,"lat":24.5755097,"id":"5ff5539fd665a2afa6765821"},{"myID":"387","name":"弘大醫院","phone":37361188,"address":"苗栗縣苗栗市新東街125號","lon":120.8209485,"lat":24.5514601,"id":"5ff5539fd665a2afa6765822"},{"myID":"388","name":"大順醫院","address":"苗栗縣大湖鄉中正路45之5號","lon":120.8683423,"lat":24.4219319,"id":"5ff5539fd665a2afa6765823"},{"myID":"391","name":"明德醫院","phone":7223138,"address":"彰化縣彰化市龍山里中山路二段874巷33號","lon":120.5532096,"lat":24.0813271,"id":"5ff5539fd665a2afa6765824"},{"myID":"392","name":"財團法人彰化基督教醫院","phone":47238595,"address":"彰化縣彰化市南校街135號、中華路176號、旭光路235、320號","lon":120.5446075,"lat":24.0715309,"id":"5ff5539fd665a2afa6765825"},{"myID":"394","name":"順安醫院","address":"彰化縣彰化市光復路53號","lon":120.5439531,"lat":24.0807465,"id":"5ff5539fd665a2afa6765826"},{"myID":"397","name":"婦友醫院","address":"彰化縣彰化市永福里中山路二段487號","lon":120.5442577,"lat":24.0778444,"id":"5ff5539fd665a2afa6765827"},{"myID":"398","name":"溫建益醫院","address":"彰化縣鹿港鎮民權路126號","lon":120.436068,"lat":24.0573139,"id":"5ff5539fd665a2afa6765828"},{"myID":"399","name":"財團法人彰化基督教醫院鹿基分院","address":"彰化縣鹿港鎮中正路480號","lon":120.4381582,"lat":24.0601677,"id":"5ff5539fd665a2afa6765829"},{"myID":"400","name":"秀傳醫療財團法人彰濱秀傳紀念醫院","address":"彰化縣鹿港鎮鹿工路6號、6-2號","lon":120.4110607,"lat":24.0781629,"id":"5ff5539fd665a2afa676582a"},{"myID":"401","name":"財團法人彰化基督教醫院鹿東分院","address":"彰化縣鹿港鎮東崎里鹿東路2段888號","lon":120.468846,"lat":24.0552868,"id":"5ff5539fd665a2afa676582b"},{"myID":"393","name":"信生醫院","address":"彰化縣彰化市三民路312號","lon":120.5449468,"lat":24.0858088,"id":"5ff5539fd665a2afa676582c"},{"myID":"403","name":"伸港忠孝醫院","phone":47991618,"address":"彰化縣伸港鄉新港村忠孝路30號","lon":120.4858405,"lat":24.1486528,"id":"5ff5539fd665a2afa676582d"},{"myID":"404","name":"員生醫院","address":"彰化縣員林鎮莒光路359號","lon":120.566505,"lat":23.959299,"id":"5ff5539fd665a2afa676582e"},{"myID":"396","name":"冠華醫院","phone":47255177,"address":"彰化縣彰化市光復里中正路一段437號","lon":120.5428241,"lat":24.0824397,"id":"5ff5539fd665a2afa676582f"},{"myID":"406","name":"協和醫院","address":"彰化縣員林鎮惠來街98號","lon":120.5700411,"lat":23.9554042,"id":"5ff5539fd665a2afa6765830"},{"myID":"407","name":"皓生醫院","phone":null,"address":"彰化縣員林鎮萬年路3段133號","lon":120.573554,"lat":23.9591399,"id":"5ff5539fd665a2afa6765831"},{"myID":"408","name":"敦仁醫院","address":"彰化縣員林鎮員水路一段102巷74弄99號","lon":120.602405,"lat":23.948804,"id":"5ff5539fd665a2afa6765832"},{"myID":"409","name":"員林何醫院","address":"彰化縣員林鎮民族街33號","lon":120.570565,"lat":23.957127,"id":"5ff5539fd665a2afa6765833"},{"myID":"410","name":"伍倫醫療社團法人員榮醫院","address":"彰化縣員林鎮中正路201號","lon":120.5749147,"lat":23.9534104,"id":"5ff5539fd665a2afa6765834"},{"myID":"411","name":"惠來醫療社團法人宏仁醫院","phone":null,"address":"彰化縣員林鎮惠來里惠來街89號","lon":120.5702885,"lat":23.9551089,"id":"5ff5539fd665a2afa6765835"},{"myID":"412","name":"行政院衛生署彰化醫院","address":"彰化縣埔心鄉中正路二段80號","lon":120.5273739,"lat":23.9503553,"id":"5ff5539fd665a2afa6765836"},{"myID":"413","name":"道安醫院","address":"彰化縣溪湖鎮光平里彰水路3段362號","lon":120.4802195,"lat":23.9615429,"id":"5ff5539fd665a2afa6765837"},{"myID":"414","name":"員林郭醫院大村分院","address":"彰化縣大村鄉田洋橫巷2-9號","lon":120.5388819,"lat":23.9990305,"id":"5ff5539fd665a2afa6765838"},{"myID":"415","name":"仁和醫院","address":"彰化縣田中鎮中州路一段157號","lon":120.5881852,"lat":23.8581103,"id":"5ff5539fd665a2afa6765839"},{"myID":"416","name":"建元醫院","address":"彰化縣田中鎮中路里中南路三段512號1~5樓","lon":120.589458,"lat":23.853315,"id":"5ff5539fd665a2afa676583a"},{"myID":"417","name":"卓醫院","address":"彰化縣北斗鎮中山路一段311號","lon":120.5154723,"lat":23.8720499,"id":"5ff5539fd665a2afa676583b"},{"myID":"418","name":"南星醫院","address":"彰化縣北斗鎮斗苑路一段26號","lon":120.527784,"lat":23.8724821,"id":"5ff5539fd665a2afa676583c"},{"myID":"395","name":"成美醫院","address":"彰化縣彰化市三民路56號","lon":120.5403052,"lat":24.0831511,"id":"5ff5539fd665a2afa676583d"},{"myID":"419","name":"洪宗鄰醫院","address":"彰化縣二林鎮中正路61號","lon":120.3678363,"lat":23.898882,"id":"5ff5539fd665a2afa676583e"},{"myID":"420","name":"財團法人彰化基督教醫院二林分院","phone":48960128,"address":"彰化縣二林鎮南光里大成路一段558號","lon":120.3633791,"lat":23.8935714,"id":"5ff5539fd665a2afa676583f"},{"myID":"421","name":"宋志懿醫院","address":"彰化縣二林鎮大成路一段51號","lon":120.3728612,"lat":23.9005377,"id":"5ff5539fd665a2afa6765840"},{"myID":"422","name":"南基醫院","address":"南投縣南投市中興路870號","lon":120.68398,"lat":23.8988861,"id":"5ff5539fd665a2afa6765841"},{"myID":"424","name":"中國醫藥大學附設醫院草屯分院","phone":null,"address":"南投縣草屯鎮平等街140號","lon":120.685805,"lat":23.9847149,"id":"5ff5539fd665a2afa6765842"},{"myID":"423","name":"行政院衛生署南投醫院","phone":49231150,"address":"南投縣南投市復興路478號 ","lon":120.6851924,"lat":23.9138473,"id":"5ff5539fd665a2afa6765843"},{"myID":"402","name":"道周醫療社團法人道周醫院","address":"彰化縣和美鎮和光路180號、和善路118號","lon":120.4915876,"lat":24.110277,"id":"5ff5539fd665a2afa6765844"},{"myID":"405","name":"員林郭醫院","address":"彰化縣員林鎮三民街三八之1號","lon":120.5729963,"lat":23.9586191,"id":"5ff5539fd665a2afa6765845"},{"myID":"426","name":"行政院衛生署草屯療養院","address":"南投縣草屯鎮玉屏路161號","lon":120.7045675,"lat":23.9898729,"id":"5ff5539fd665a2afa6765846"},{"myID":"429","name":"埔基醫療財團法人埔里基督教醫院","address":"南投縣埔里鎮鐵山路一號","lon":120.946533,"lat":23.9704593,"id":"5ff5539fd665a2afa6765847"},{"myID":"430","name":"新泰宜婦幼醫院","address":"南投縣名間鄉新街村彰南路571之1號","lon":120.691106,"lat":23.882171,"id":"5ff5539fd665a2afa6765848"},{"myID":"425","name":"曾漢棋綜合醫院","address":"南投縣草屯鎮虎山路915號","lon":120.6857383,"lat":23.9785838,"id":"5ff5539fd665a2afa6765849"},{"myID":"432","name":"東華醫院","address":"南投縣竹山鎮集山路三段272巷16號","lon":120.7000345,"lat":23.7642498,"id":"5ff5539fd665a2afa676584a"},{"myID":"433","name":"天主教福安醫院","address":"雲林縣斗南鎮北銘里文昌路110號","lon":120.482143,"lat":23.678763,"id":"5ff5539fd665a2afa676584b"},{"myID":"434","name":"財團法人天主教若瑟醫院","address":"雲林縣虎尾鎮新生路74號","lon":120.437331,"lat":23.7080447,"id":"5ff5539fd665a2afa676584c"},{"myID":"435","name":"蔡醫院","phone":56622580,"address":"雲林縣土庫鎮中山路64號","lon":120.389765,"lat":23.6744327,"id":"5ff5539fd665a2afa676584d"},{"myID":"436","name":"長庚醫療財團法人雲林長庚紀念醫院","address":"雲林縣麥寮鄉三盛村工業路707號","lon":120.2188471,"lat":23.7954074,"id":"5ff5539fd665a2afa676584e"},{"myID":"437","name":"洪揚醫院","address":"雲林縣斗六市忠孝里文化路138號","lon":120.5488173,"lat":23.7108506,"id":"5ff5539fd665a2afa676584f"},{"myID":"428","name":"台中榮民總醫院埔里分院","address":"南投縣埔里鎮蜈蚣里榮光路1號","lon":120.9958264,"lat":23.975824,"id":"5ff5539fd665a2afa6765850"},{"myID":"439","name":"信安醫療社團法人信安醫院","phone":null,"address":"雲林縣斗六市江厝里瓦厝路159號","lon":120.5113496,"lat":23.6686,"id":"5ff5539fd665a2afa6765851"},{"myID":"440","name":"國立成功大學醫學院附設醫院斗六分院","address":"雲林縣斗六市莊敬路345號","lon":120.545492,"lat":23.703135,"id":"5ff5539fd665a2afa6765852"},{"myID":"441","name":"國立台灣大學醫學院附設醫院雲林分院","address":"雲林縣斗六市雲林路二段579號","lon":120.5259091,"lat":23.6975385,"id":"5ff5539fd665a2afa6765853"},{"myID":"442","name":"育仁醫院","address":"雲林縣西螺鎮延平路162號","lon":120.4608891,"lat":23.8013478,"id":"5ff5539fd665a2afa6765854"},{"myID":"427","name":"佑民醫療社團法人佑民醫院","address":"南投縣草屯鎮太平路一段200號","lon":120.6817657,"lat":23.9606022,"id":"5ff5539fd665a2afa6765855"},{"myID":"444","name":"中國醫藥大學北港附設醫院","address":"雲林縣北港鎮新德路123號","lon":120.307229,"lat":23.590144,"id":"5ff5539fd665a2afa6765856"},{"myID":"445","name":"全生醫院","address":"雲林縣北港鎮中正路100號","lon":120.3014695,"lat":23.5698667,"id":"5ff5539fd665a2afa6765857"},{"myID":"446","name":"北港仁一醫院","address":"雲林縣北港鎮公園路155號","lon":120.3012934,"lat":23.577433,"id":"5ff5539fd665a2afa6765858"},{"myID":"447","name":"諸元內科醫院","address":"雲林縣北港鎮中和里中山路125號","lon":120.3044359,"lat":23.5670853,"id":"5ff5539fd665a2afa6765859"},{"myID":"448","name":"台中榮民總醫院灣橋分院","address":"嘉義縣竹崎鄉灣橋村石麻園38號","lon":120.5065154,"lat":23.4876922,"id":"5ff5539fd665a2afa676585a"},{"myID":"449","name":"長庚醫療財團法人嘉義長庚紀念醫院","address":"嘉義縣朴子市仁和里嘉朴路西段六號、八號","lon":120.2859421,"lat":23.462333,"id":"5ff5539fd665a2afa676585b"},{"myID":"450","name":"行政院衛生署朴子醫院","address":"嘉義縣朴子市永和里42－50號","lon":120.2484092,"lat":23.4628194,"id":"5ff5539fd665a2afa676585c"},{"myID":"451","name":"財團法人佛教慈濟綜合醫院大林分院","address":"嘉義縣大林鎮平林里民生路二號","lon":120.4571765,"lat":23.596561,"id":"5ff5539fd665a2afa676585d"},{"myID":"452","name":"復興醫院","address":"屏東縣屏東市民生路147－3號","lon":120.4957358,"lat":22.6685561,"id":"5ff5539fd665a2afa676585e"},{"myID":"453","name":"國軍高雄總醫院附設屏東民眾診療服務處","address":"屏東縣屏東市大湖路58巷22號","lon":120.487487,"lat":22.633664,"id":"5ff5539fd665a2afa676585f"},{"myID":"438","name":"安生醫院","address":"雲林縣斗六市仁愛里永樂街120號","lon":120.5469659,"lat":23.7083122,"id":"5ff5539fd665a2afa6765860"},{"myID":"454","name":"新安醫院","phone":null,"address":"屏東縣屏東市仁德路11號1-5樓","lon":120.4943415,"lat":22.6711874,"id":"5ff5539fd665a2afa6765861"},{"myID":"455","name":"國仁醫院","address":"屏東縣屏東市民生東路12-2號","lon":120.5145486,"lat":22.658315,"id":"5ff5539fd665a2afa6765862"},{"myID":"456","name":"優生婦產科醫院","address":"屏東縣屏東市華山里瑞光路三段103號","lon":120.5039114,"lat":22.6861388,"id":"5ff5539fd665a2afa6765863"},{"myID":"457","name":"民眾醫院","address":"屏東縣屏東市泰安里忠孝路120之1號","lon":120.4876431,"lat":22.6764112,"id":"5ff5539fd665a2afa6765864"},{"myID":"458","name":"國新醫院","address":"屏東縣屏東市福建路17號","lon":120.4922323,"lat":22.6717943,"id":"5ff5539fd665a2afa6765865"},{"myID":"459","name":"安和醫療社團法人安和醫院","address":"屏東縣屏東市崇蘭里自由路598號","lon":120.483678,"lat":22.683477,"id":"5ff5539fd665a2afa6765866"},{"myID":"443","name":"財團法人彰化基督教醫院雲林分院","address":"雲林縣西螺鎮新豐里市場南路375號","lon":120.4413275,"lat":23.7807076,"id":"5ff5539fd665a2afa6765867"},{"myID":"431","name":"竹山秀傳醫院","address":"南投縣竹山鎮集山路二段75號","lon":120.7139639,"lat":23.8002226,"id":"5ff5539fd665a2afa6765868"},{"myID":"461","name":"寶建醫療社團法人寶建醫院","address":"屏東縣屏東市中山路123號","lon":120.48442,"lat":22.681477,"id":"5ff5539fd665a2afa6765869"},{"myID":"464","name":"同慶醫院","address":"屏東縣高樹鄉長榮村興中路208號","lon":120.6004223,"lat":22.8254313,"id":"5ff5539fd665a2afa676586a"},{"myID":"465","name":"屏安醫院","address":"屏東縣麟洛鄉麟蹄村中山路160之1號","lon":120.528008,"lat":22.6504952,"id":"5ff5539fd665a2afa676586b"},{"myID":"466","name":"佑青醫療財團法人佑青醫院","address":"屏東縣內埔鄉建興村建興路218巷19號","lon":120.567644,"lat":22.665878,"id":"5ff5539fd665a2afa676586c"},{"myID":"467","name":"高雄榮民總醫院屏東分院","address":"屏東縣內埔鄉龍潭村昭勝路安平一巷1號","lon":120.6013168,"lat":22.6786037,"id":"5ff5539fd665a2afa676586d"},{"myID":"468","name":"安泰醫療社團法人潮州安泰醫院","phone":8.7800888,"address":"屏東縣潮州鎮三星里四維路162號","lon":120.546949,"lat":22.5540288,"id":"5ff5539fd665a2afa676586e"},{"myID":"469","name":"永生中醫醫院","address":"屏東縣潮州鎮長興路60號","lon":120.5404234,"lat":22.5514798,"id":"5ff5539fd665a2afa676586f"},{"myID":"470","name":"茂隆骨科醫院","address":"屏東縣潮州鎮朝昇路322號","lon":120.5392593,"lat":22.5562125,"id":"5ff5539fd665a2afa6765870"},{"myID":"471","name":"皇安醫療社團法人小康醫院","phone":8.7973168,"address":"屏東縣新埤鄉新華路文化巷18之1號","lon":120.549822,"lat":22.4695978,"id":"5ff5539fd665a2afa6765871"},{"myID":"460","name":"行政院衛生署屏東醫院","address":"屏東縣屏東市自由路270號","lon":120.4955525,"lat":22.6733243,"id":"5ff5539fd665a2afa6765872"},{"myID":"473","name":"安泰醫療社團法人安泰醫院","address":"屏東縣東港鎮中正路一段210號","lon":120.4592153,"lat":22.4740818,"id":"5ff5539fd665a2afa6765873"},{"myID":"474","name":"輔英科技大學附設醫院","address":"屏東縣東港鎮中山路5號","lon":120.453052,"lat":22.465312,"id":"5ff5539fd665a2afa6765874"},{"myID":"475","name":"枋寮醫療社團法人枋寮醫院","phone":8.8789991,"address":"屏東縣枋寮鄉安樂村中山路139號(代表號)及枋寮鄉安樂村隆山路59號","lon":120.5964935,"lat":22.3645269,"id":"5ff5539fd665a2afa6765875"},{"myID":"476","name":"行政院衛生署恆春旅遊醫院","address":"屏東縣恆春鎮山腳里恆南路188號","lon":120.7448456,"lat":21.9992018,"id":"5ff5539fd665a2afa6765876"},{"myID":"477","name":"南門醫院","address":"屏東縣恆春鎮南門路10號","lon":120.7453713,"lat":22.0008126,"id":"5ff5539fd665a2afa6765877"},{"myID":"478","name":"恆基醫療財團法人恆春基督教醫院","address":"屏東縣恆春鎮山腳里恆西路21號","lon":120.7411183,"lat":22.0023288,"id":"5ff5539fd665a2afa6765878"},{"myID":"479","name":"財團法人天主教靈醫會惠民醫院","address":"澎湖縣馬公市樹德路14號","lon":119.5687023,"lat":23.5689025,"id":"5ff5539fd665a2afa6765879"},{"myID":"480","name":"行政院衛生署澎湖醫院","address":"澎湖縣馬公市中正路10號","lon":119.5657456,"lat":23.5643306,"id":"5ff5539fd665a2afa676587a"},{"myID":"481","name":"三軍總醫院澎湖分院附設民眾診療服務處","address":"澎湖縣馬公市前寮里90號1-5樓","lon":119.5837013,"lat":23.554336,"id":"5ff5539fd665a2afa676587b"},{"myID":"482","name":"行政院衛生署花蓮醫院","phone":38358141,"address":"花蓮縣花蓮市中正路600號","lon":121.6111252,"lat":23.9795176,"id":"5ff5539fd665a2afa676587c"},{"myID":"463","name":"聖恩內科醫院","address":"屏東縣高樹鄉田子村勝利路132號","lon":120.5788448,"lat":22.8049766,"id":"5ff5539fd665a2afa676587d"},{"myID":"483","name":"財團法人佛教慈濟綜合醫院","phone":38561825,"address":"花蓮縣花蓮市中央路三段707號","lon":121.5923675,"lat":23.9950092,"id":"5ff5539fd665a2afa676587e"},{"myID":"484","name":"台灣基督教門諾會醫療財團法人門諾醫院","address":"花蓮縣花蓮市民權路44號","lon":121.6263725,"lat":23.9878102,"id":"5ff5539fd665a2afa676587f"},{"myID":"485","name":"和平中醫醫院","phone":8333491,"address":"花蓮縣花蓮市信義街61號","lon":121.604075,"lat":23.974434,"id":"5ff5539fd665a2afa6765880"},{"myID":"486","name":"國軍花蓮總醫院附設民眾診療服務處","address":"花蓮縣新城鄉嘉里路163號","lon":121.6064683,"lat":24.0249967,"id":"5ff5539fd665a2afa6765881"},{"myID":"462","name":"屏基醫療財團法人屏東基督教醫院","address":"屏東縣屏東市大連路60號","lon":120.502622,"lat":22.682129,"id":"5ff5539fd665a2afa6765882"},{"myID":"472","name":"迦樂醫療財團法人迦樂醫院","address":"屏東縣新埤鄉箕湖村進化路12之200號","lon":120.615124,"lat":22.463218,"id":"5ff5539fd665a2afa6765883"},{"myID":"487","name":"台灣基督教門諾會醫療財團法人門諾醫院壽豐分院","address":"花蓮縣壽豐鄉共和村魚池52號","lon":121.5246796,"lat":23.8698931,"id":"5ff5539fd665a2afa6765884"},{"myID":"489","name":"行政院衛生署花蓮醫院豐濱原住民分院","address":"花蓮縣豐濱鄉光豐路41號","lon":121.5213623,"lat":23.6018599,"id":"5ff5539fd665a2afa6765885"},{"myID":"492","name":"行政院衛生署玉里醫院","phone":38886141,"address":"花蓮縣玉里鎮中華路448號","lon":121.3209918,"lat":23.3474654,"id":"5ff5539fd665a2afa6765886"},{"myID":"488","name":"行政院國軍退役官兵輔導委員會鳳林榮民醫院","phone":38763331,"address":"花蓮縣鳳林鎮中正路一段2號","lon":121.439949,"lat":23.726614,"id":"5ff5539fd665a2afa6765887"},{"myID":"491","name":"財團法人佛教慈濟綜合醫院玉里分院","phone":38882718,"address":"花蓮縣玉里鎮民權街1之 1號","lon":121.318176,"lat":23.3352129,"id":"5ff5539fd665a2afa6765888"},{"myID":"495","name":"行政院國軍退除役官兵輔導委員會台東榮民醫院","phone":89325840,"address":"台東縣台東市更生路1000號","lon":121.1363403,"lat":22.7680109,"id":"5ff5539fd665a2afa6765889"},{"myID":"490","name":"行政院國軍退除役官兵輔導委員會玉里榮民醫院","phone":38883141,"address":"花蓮縣玉里鎮新興街91號","lon":121.3120402,"lat":23.3391682,"id":"5ff5539fd665a2afa676588a"},{"myID":"497","name":"東基醫療財團法人台東基督教醫院","phone":89323362,"address":"台東縣台東市開封街350號","lon":121.1453168,"lat":22.7635846,"id":"5ff5539fd665a2afa676588b"},{"myID":"498","name":"財團法人佛教慈濟綜合醫院關山分院","address":"台東縣關山鎮和平路125之5號","lon":121.1669405,"lat":23.0572582,"id":"5ff5539fd665a2afa676588c"},{"myID":"494","name":"行政院衛生署台東醫院","phone":89324112,"address":"台東縣台東市五權街1號","lon":121.1499383,"lat":22.7571541,"id":"5ff5539fd665a2afa676588d"},{"myID":"500","name":"行政院衛生署金門醫院","address":"金門縣金湖鎮復興路2號","lon":118.420076,"lat":24.4407155,"id":"5ff5539fd665a2afa676588e"},{"myID":"501","name":"連江縣立醫院","phone":83625114,"address":"連江縣南竿鄉復興村217號","lon":119.9558866,"lat":26.1573929,"id":"5ff5539fd665a2afa676588f"},{"myID":"496","name":"天主教花蓮教區醫療財團法人台東聖母醫院","address":"台東縣台東市民族里21鄰杭州街2號","lon":121.1460022,"lat":22.7581313,"id":"5ff5539fd665a2afa6765890"},{"myID":"499","name":"行政院衛生署台東醫院成功分院門診部","phone":89854748,"address":"台東縣成功鎮中山東路三二號","lon":121.3778422,"lat":23.0993127,"id":"5ff5539fd665a2afa6765891"},{"myID":"493","name":"馬偕紀念醫院台東分院","phone":89310150,"address":"台東縣台東市長沙街303巷1號","lon":121.1401652,"lat":22.7514997,"id":"5ff5539fd665a2afa6765892"}]