[{"myID":"2","name":"天心中醫醫院","phone":223615050,"address":"台北市中正區武昌街一段33號","lon":121.512017,"lat":25.044235,"id":"5ff5539fd665a2afa676569c"},{"myID":"3","name":"國立台灣大學醫學院附設醫院","address":"台北市中正區中山南路7、8號；常德街1號","lon":121.5183016,"lat":25.0407356,"id":"5ff5539fd665a2afa676569d"},{"myID":"4","name":"台北市立聯合醫院","phone":25523234,"address":"台北市大同區鄭州路145號","lon":121.5093209,"lat":25.0509696,"id":"5ff5539fd665a2afa676569e"},{"myID":"5","name":"行政院衛生署台北醫院城區分院","phone":25521429,"address":"台北市大同區鄭州路40號","lon":121.5085064,"lat":25.0501995,"id":"5ff5539fd665a2afa676569f"},{"myID":"6","name":"協和婦女醫院","phone":225072222,"address":"台北市中山區松江路85巷5號1，2，3，4樓、93巷6號1，4樓","lon":121.5282095,"lat":25.0490351,"id":"5ff5539fd665a2afa67656a0"},{"myID":"8","name":"財團法人台灣基督長老教會馬偕紀念社會事業基金會馬偕紀念醫院","phone":225433535,"address":"台北市中山區中山北路二段92號","lon":121.5226251,"lat":25.0588655,"id":"5ff5539fd665a2afa67656a1"},{"myID":"1","name":"郵政總局郵政醫院","phone":223956755,"address":"台北市中正區福州街14號","lon":121.5187444,"lat":25.0287884,"id":"5ff5539fd665a2afa67656a2"},{"myID":"9","name":"福全醫院","phone":225630555,"address":"台北市中山區民權東路二段48號","lon":121.5305693,"lat":25.0623558,"id":"5ff5539fd665a2afa67656a3"},{"myID":"11","name":"基督復臨安息日會醫療財團法人台安醫院","phone":227718151,"address":"台北市松山區八德路二段424,426號","lon":121.5475368,"lat":25.048012,"id":"5ff5539fd665a2afa67656a4"},{"myID":"12","name":"長庚醫療財團法人台北長庚紀念醫院","phone":227135211,"address":"台北市松山區敦化北路199號","lon":121.5496167,"lat":25.0556065,"id":"5ff5539fd665a2afa67656a5"},{"myID":"10","name":"培靈醫院","phone":227606116,"address":"台北市松山區八德路四段355號","lon":121.5682439,"lat":25.049349,"id":"5ff5539fd665a2afa67656a6"},{"myID":"7","name":"泰安醫院","phone":225375633,"address":"台北市中山區民權東路二段92巷2之1號(地下一樓至地上六樓)","lon":121.5316759,"lat":25.0614508,"id":"5ff5539fd665a2afa67656a7"},{"myID":"16","name":"秀傳醫院","phone":null,"address":"台北市大安區光復南路116巷1.3.5號1至4樓及地下1樓","lon":121.556835,"lat":25.0430959,"id":"5ff5539fd665a2afa67656a8"},{"myID":"17","name":"中心診所醫療財團法人中心綜合醫院","phone":227510221,"address":"台北市大安區忠孝東路四段77號","lon":121.547396,"lat":25.0418484,"id":"5ff5539fd665a2afa67656a9"},{"myID":"18","name":"國泰醫療財團法人國泰綜合醫院","phone":227082121,"address":"台北市大安區仁愛路四段266巷6號，280號","lon":121.552793,"lat":25.037316,"id":"5ff5539fd665a2afa67656aa"},{"myID":"13","name":"松山醫院","address":"台北市松山區南京東路五段324號一至四樓322號一至四樓","lon":121.5682667,"lat":25.0510695,"id":"5ff5539fd665a2afa67656ab"},{"myID":"14","name":"三軍總醫院松山分院附設民眾診療服務處","phone":227462151,"address":"台北市松山區健康路131號","lon":121.557672,"lat":25.054373,"id":"5ff5539fd665a2afa67656ac"},{"myID":"20","name":"宏恩醫療財團法人宏恩綜合醫院","phone":227713161,"address":"台北市大安區仁愛路四段71巷1號","lon":121.5466881,"lat":25.0381916,"id":"5ff5539fd665a2afa67656ad"},{"myID":"21","name":"西園醫院","phone":223076968,"address":"台北市萬華區西園路二段276號185、187、189號","lon":121.494286,"lat":25.0275909,"id":"5ff5539fd665a2afa67656ae"},{"myID":"15","name":"博仁綜合醫院","phone":225786677,"address":"台北市松山區光復北路66-68號","lon":121.5578126,"lat":25.0498882,"id":"5ff5539fd665a2afa67656af"},{"myID":"19","name":"中山醫療社團法人中山醫院","address":"台北市大安區仁愛路四段112巷11號","lon":121.5499766,"lat":25.0366641,"id":"5ff5539fd665a2afa67656b0"},{"myID":"22","name":"國立台灣大學醫學院附設醫院北護分院","phone":223717101,"address":"台北市萬華區康定路37號","lon":121.5024827,"lat":25.042142,"id":"5ff5539fd665a2afa67656b1"},{"myID":"23","name":"全昌堂傳統中醫醫院","phone":223753383,"address":"台北市萬華區漢中街154號","lon":121.5066859,"lat":25.0413199,"id":"5ff5539fd665a2afa67656b2"},{"myID":"24","name":"財團法人台灣省私立台北仁濟院附設仁濟醫院","phone":223021131,"address":"台北市萬華區廣州街200，243號","lon":121.497895,"lat":25.03666,"id":"5ff5539fd665a2afa67656b3"},{"myID":"25","name":"同仁院醫療財團法人萬華醫院","phone":223059292,"address":"台北市萬華區中華路二段606巷6號","lon":121.5098076,"lat":25.0240204,"id":"5ff5539fd665a2afa67656b4"},{"myID":"26","name":"台北醫學大學附設醫院","phone":227372181,"address":"台北市信義區吳興街252號","lon":121.5634277,"lat":25.0267606,"id":"5ff5539fd665a2afa67656b5"},{"myID":"30","name":"振興醫療財團法人振興醫院","phone":228264400,"address":"台北市北投區振興街45號","lon":121.5224662,"lat":25.1175257,"id":"5ff5539fd665a2afa67656b6"},{"myID":"27","name":"仁康醫院","phone":227360226,"address":"台北市信義區基隆路二段131之24號","lon":121.556217,"lat":25.0274038,"id":"5ff5539fd665a2afa67656b7"},{"myID":"31","name":"醫療財團法人辜公亮基金會和信治癌中心醫院","address":"台北市北投區立德路125號","lon":121.4720764,"lat":25.1283783,"id":"5ff5539fd665a2afa67656b8"},{"myID":"28","name":"新光醫療財團法人新光吳火獅紀念醫院","phone":228332211,"address":"台北市士林區文昌路95號及士商路51號、51號2樓、51號3樓、51號4樓、51號5樓、51號6樓、51號7樓、53號、55號、57號","lon":{"stringValue":"\"NaN\"","kind":"Number","value":null,"path":"lon"},"lat":{"stringValue":"\"NaN\"","kind":"Number","value":null,"path":"lat"},"id":"5ff5539fd665a2afa67656b9"},{"myID":"33","name":"行政院國軍退除役官兵輔導委員會台北榮民總醫院","phone":228712121,"address":"台北市北投區石牌路二段201號","lon":121.5201598,"lat":25.1201836,"id":"5ff5539fd665a2afa67656ba"},{"myID":"34","name":"康寧醫療財團法人康寧醫院","phone":26345500,"address":"台北市內湖區成功路五段420巷26號","lon":121.6087332,"lat":25.0758921,"id":"5ff5539fd665a2afa67656bb"},{"myID":"29","name":"台北市立關渡醫院─委託行政院國軍退除役官兵輔導委員會台北榮民總醫院經營","phone":28587000,"address":"台北市北投區知行路二二五巷十二號","lon":121.4662917,"lat":25.1202506,"id":"5ff5539fd665a2afa67656bc"},{"myID":"37","name":"資生堂醫院","phone":227867696,"address":"台北市南港區新民街64號","lon":121.611524,"lat":25.0559219,"id":"5ff5539fd665a2afa67656bd"},{"myID":"38","name":"台北市立萬芳醫院－委託財團法人私立台北醫學大學辦理","phone":229307930,"address":"台北市文山區興隆路三段111號","lon":121.5575845,"lat":24.9996897,"id":"5ff5539fd665a2afa67656be"},{"myID":"35","name":"三軍總醫院附設民眾診療服務處","phone":null,"address":"台北市內湖區成功路二段325號；台北市中正區汀州路3段40號","lon":121.5598345,"lat":25.091075,"id":"5ff5539fd665a2afa67656bf"},{"myID":"39","name":"景美醫院","address":"台北市文山區羅斯福路六段280號","lon":121.539881,"lat":24.991198,"id":"5ff5539fd665a2afa67656c0"},{"myID":"41","name":"澄清綜合醫院","address":"台中市中區平等街139號","lon":120.6816834,"lat":24.1426197,"id":"5ff5539fd665a2afa67656c1"},{"myID":"42","name":"仁愛醫療財團法人台中仁愛醫院","address":"台中市中區柳川里柳川東路三段36號","lon":120.6779185,"lat":24.143416,"id":"5ff5539fd665a2afa67656c2"},{"myID":"40","name":"第一醫院","address":"台中市中區民族路一八四號","lon":120.6764501,"lat":24.1425177,"id":"5ff5539fd665a2afa67656c3"},{"myID":"43","name":"中國醫藥大學附設醫院台中東區分院","address":"台中市東區自由路三段296號","lon":120.6946953,"lat":24.1426656,"id":"5ff5539fd665a2afa67656c4"},{"myID":"32","name":"三軍總醫院北投分院附設民眾診療服務處","phone":228959808,"address":"台北市北投區新民路60號 中和街二五0號","lon":121.509722,"lat":25.1398979,"id":"5ff5539fd665a2afa67656c5"},{"myID":"44","name":"台新醫院","address":"台中市東區振興路439之3號及441號","lon":120.705561,"lat":24.130363,"id":"5ff5539fd665a2afa67656c6"},{"myID":"36","name":"中國醫藥大學附設醫院台北分院","address":"台北市內湖區內湖路二段360號","lon":121.5906407,"lat":25.0821548,"id":"5ff5539fd665a2afa67656c7"},{"myID":"45","name":"台安醫院","address":"台中市東區進化路二0三號","lon":120.693969,"lat":24.1604549,"id":"5ff5539fd665a2afa67656c8"},{"myID":"46","name":"中山醫學大學附設醫院中興分院","phone":null,"address":"台中市南區復興路2段11號","lon":120.6585786,"lat":24.1176305,"id":"5ff5539fd665a2afa67656c9"},{"myID":"47","name":"宏恩醫院","address":"台中市南區復興路二段38-13號、南平路31-2號1、2、3樓","lon":120.6597548,"lat":24.1187884,"id":"5ff5539fd665a2afa67656ca"},{"myID":"48","name":"宏恩醫院龍安分院","address":"台中市南區德富路145巷2號","lon":120.6550624,"lat":24.1194099,"id":"5ff5539fd665a2afa67656cb"},{"myID":"50","name":"財團法人台灣省私立台中仁愛之家附設靜和醫院","address":"台中市西區吉龍里南屯路1段158號","lon":120.6596379,"lat":24.1334648,"id":"5ff5539fd665a2afa67656cc"},{"myID":"49","name":"中山醫學大學附設醫院","address":"台中市南區建國北路一段110號","lon":120.6516957,"lat":24.1218042,"id":"5ff5539fd665a2afa67656cd"},{"myID":"51","name":"林森醫院","address":"台中市西區三民里三民路一段152號之一","lon":120.67297,"lat":24.135917,"id":"5ff5539fd665a2afa67656ce"},{"myID":"52","name":"行政院衛生署台中醫院","address":"台中市西區廣民里三民路1段199號","lon":120.6762712,"lat":24.1406262,"id":"5ff5539fd665a2afa67656cf"},{"myID":"53","name":"台安醫院雙十分院","address":"台中市北區雙十路二段29號","lon":120.6885503,"lat":24.1526275,"id":"5ff5539fd665a2afa67656d0"},{"myID":"54","name":"勝美醫院","address":"台中市北區五權路480、482號","lon":120.68289,"lat":24.153249,"id":"5ff5539fd665a2afa67656d1"},{"myID":"55","name":"新亞東婦產科醫院","address":"台中市北區大雅路271號、275號1樓","lon":120.6836398,"lat":24.1644839,"id":"5ff5539fd665a2afa67656d2"},{"myID":"56","name":"中國醫藥大學附設醫院","address":"台中市北區育德路二號","lon":120.6805492,"lat":24.1576494,"id":"5ff5539fd665a2afa67656d3"},{"myID":"57","name":"維新醫療社團法人台中維新醫院","address":"台中市北區育德路185、187號","lon":120.6724155,"lat":24.1571613,"id":"5ff5539fd665a2afa67656d4"},{"myID":"58","name":"順天醫療社團法人順天醫院","address":"台中市北區三民路三段333號","lon":120.689036,"lat":24.1576963,"id":"5ff5539fd665a2afa67656d5"},{"myID":"59","name":"國軍台中總醫院附設民眾診療服務處中清分院","address":"台中市北區忠明路500號","lon":120.6722378,"lat":24.1627247,"id":"5ff5539fd665a2afa67656d6"},{"myID":"62","name":"聯安醫院","address":"台中市北屯區東山路一段37號","lon":120.6993404,"lat":24.170599,"id":"5ff5539fd665a2afa67656d7"},{"myID":"63","name":"全民醫院","address":"台中市北屯區中清路72之42號","lon":120.6664979,"lat":24.1815792,"id":"5ff5539fd665a2afa67656d8"},{"myID":"64","name":"博愛外科醫院","address":"台中市北屯區文心路三段431號","lon":120.667943,"lat":24.173492,"id":"5ff5539fd665a2afa67656d9"},{"myID":"60","name":"弘光科技大學附設老人醫院","address":"台中市北屯區太原路三段1141號","lon":120.7228657,"lat":24.1627049,"id":"5ff5539fd665a2afa67656da"},{"myID":"61","name":"澄清復健醫院","phone":null,"address":"台中市北屯區太原路3段1142號","lon":120.7216065,"lat":24.1616668,"id":"5ff5539fd665a2afa67656db"},{"myID":"65","name":"聯合中醫醫院","address":"台中市北屯區大連路二段36號一、二樓","lon":120.683063,"lat":24.176052,"id":"5ff5539fd665a2afa67656dc"},{"myID":"66","name":"澄清綜合醫院中港分院","address":"台中市西屯區台灣大道4段972號","lon":120.6168215,"lat":24.182821,"id":"5ff5539fd665a2afa67656dd"},{"myID":"68","name":"友仁醫院","address":"台中市南屯區五權西路二段197號","lon":120.6495166,"lat":24.1398865,"id":"5ff5539fd665a2afa67656de"},{"myID":"67","name":"行政院國軍退除役官兵輔導委員會台中榮民總醫院","address":"台中市西屯區台灣大道4段1650號","lon":120.60371,"lat":24.183744,"id":"5ff5539fd665a2afa67656df"},{"myID":"70","name":"法務部矯正署台中監獄附設培德醫院","address":"台中市南屯區培德路9號","lon":120.5997446,"lat":24.1422587,"id":"5ff5539fd665a2afa67656e0"},{"myID":"72","name":"賢德醫院","address":"台中市太平區宜昌路420號","lon":120.7143044,"lat":24.145305,"id":"5ff5539fd665a2afa67656e1"},{"myID":"73","name":"國軍台中總醫院附設民眾診療服務處","address":"台中市太平區中山路二段348號","lon":120.7285064,"lat":24.1501058,"id":"5ff5539fd665a2afa67656e2"},{"myID":"74","name":"仁愛醫療財團法人大里仁愛醫院","address":"台中市大里區東榮路483號","lon":120.6805749,"lat":24.1092272,"id":"5ff5539fd665a2afa67656e3"},{"myID":"75","name":"新菩提醫院","address":"台中市大里區中興路二段619、621號","lon":120.689765,"lat":24.115661,"id":"5ff5539fd665a2afa67656e4"},{"myID":"76","name":"達明眼科醫院","address":"台中市大里區中興路二段490號","lon":120.690076,"lat":24.1113899,"id":"5ff5539fd665a2afa67656e5"},{"myID":"69","name":"林新醫療社團法人林新醫院","address":"台中市南屯區惠中路3段36號","lon":120.6403479,"lat":24.1490126,"id":"5ff5539fd665a2afa67656e6"},{"myID":"71","name":"太平澄清醫院","address":"台中市太平區中興路88之7、92、94、96號","lon":120.715823,"lat":24.127512,"id":"5ff5539fd665a2afa67656e7"},{"myID":"77","name":"霧峰澄清醫院","address":"台中市霧峰區中正路1129號","lon":120.6993022,"lat":24.0699168,"id":"5ff5539fd665a2afa67656e8"},{"myID":"80","name":"烏日澄清醫院","address":"台中市烏日區光明路419號","lon":120.6476842,"lat":24.100883,"id":"5ff5539fd665a2afa67656e9"},{"myID":"81","name":"杏豐醫院","address":"台中市豐原區三民路106號","lon":120.720143,"lat":24.253662,"id":"5ff5539fd665a2afa67656ea"},{"myID":"82","name":"祥恩醫院","address":"台中市豐原區中興路35號","lon":120.7175946,"lat":24.2481498,"id":"5ff5539fd665a2afa67656eb"},{"myID":"83","name":"新惠生醫院","address":"台中市豐原區圓環北路一段319號","lon":120.7193461,"lat":24.2582524,"id":"5ff5539fd665a2afa67656ec"},{"myID":"78","name":"本堂澄清醫院","address":"台中市霧峰區中正路718號及中正路720巷5號","lon":120.6948132,"lat":24.0514625,"id":"5ff5539fd665a2afa67656ed"},{"myID":"84","name":"漢忠醫院","address":"台中市豐原區中正路218號","lon":120.7178434,"lat":24.2522299,"id":"5ff5539fd665a2afa67656ee"},{"myID":"79","name":"泰安醫院","address":"台中市霧峰區中正路928號","lon":120.6987272,"lat":24.0648288,"id":"5ff5539fd665a2afa67656ef"},{"myID":"85","name":"福平醫院","address":"台中市豐原區中正路71號","lon":120.7215388,"lat":24.2525541,"id":"5ff5539fd665a2afa67656f0"},{"myID":"86","name":"豐安醫院","address":"台中市豐原區中正路115號","lon":120.7206136,"lat":24.2516261,"id":"5ff5539fd665a2afa67656f1"},{"myID":"87","name":"惠盛醫院","phone":425229100,"address":"台中市豐原區中正路268號","lon":120.716185,"lat":24.251739,"id":"5ff5539fd665a2afa67656f2"},{"myID":"88","name":"中國醫藥大學附設醫院豐原分院","address":"台中市豐原區中正路199號","lon":120.7183696,"lat":24.2516467,"id":"5ff5539fd665a2afa67656f3"},{"myID":"89","name":"行政院衛生署豐原醫院","address":"台中市豐原區安康路100號","lon":120.7252031,"lat":24.2427794,"id":"5ff5539fd665a2afa67656f4"},{"myID":"90","name":"大同中醫醫院","address":"台中市豐原區下街里仁愛街11號","lon":120.717477,"lat":24.252515,"id":"5ff5539fd665a2afa67656f5"},{"myID":"91","name":"天心中醫醫院","address":"台中市豐原區田心里中山路206號","lon":120.712405,"lat":24.240588,"id":"5ff5539fd665a2afa67656f6"},{"myID":"92","name":"清海醫院","address":"台中市石岡區金星里石岡街下坑巷四十一之二號","lon":120.7758057,"lat":24.2489187,"id":"5ff5539fd665a2afa67656f7"},{"myID":"96","name":"清泉醫院","address":"台中市大雅區三和里雅潭路四段80號","lon":120.6573443,"lat":24.2212538,"id":"5ff5539fd665a2afa67656f8"},{"myID":"97","name":"大雅澄清醫院","address":"台中市大雅區中清路三段24之2號","lon":120.6443971,"lat":24.2271651,"id":"5ff5539fd665a2afa67656f9"},{"myID":"98","name":"光田醫療社團法人光田綜合醫院","address":"台中市沙鹿區沙田路117號（含大同街5-2號）","lon":120.558866,"lat":24.23543,"id":"5ff5539fd665a2afa67656fa"},{"myID":"94","name":"東勢鎮農會附設農民醫院","address":"台中市東勢區豐勢路297號","lon":120.8291464,"lat":24.2534386,"id":"5ff5539fd665a2afa67656fb"},{"myID":"95","name":"財團法人佛教慈濟綜合醫院台中分院","address":"台中市潭子區豐興路一段66、88號","lon":120.7215216,"lat":24.1966294,"id":"5ff5539fd665a2afa67656fc"},{"myID":"101","name":"明德醫院","address":"台中市梧棲區仁美街33巷50號","lon":120.5358872,"lat":24.2535822,"id":"5ff5539fd665a2afa67656fd"},{"myID":"93","name":"協和醫院","address":"台中市東勢區豐勢路318號","lon":120.8299791,"lat":24.2530973,"id":"5ff5539fd665a2afa67656fe"},{"myID":"99","name":"童綜合醫療社團法人童綜合醫院","address":"台中市梧棲區台灣大道八段699號","lon":120.5428236,"lat":24.2472297,"id":"5ff5539fd665a2afa67656ff"},{"myID":"100","name":"忠港醫院","address":"台中市梧棲區文化里中興路49號","lon":120.5345295,"lat":24.2530559,"id":"5ff5539fd665a2afa6765700"},{"myID":"105","name":"順安醫院","address":"台中市大甲區光明路6號","lon":120.6255703,"lat":24.3437285,"id":"5ff5539fd665a2afa6765701"},{"myID":"106","name":"永川醫院","address":"台南市中西區成功路169號","lon":120.2063338,"lat":22.9980871,"id":"5ff5539fd665a2afa6765702"},{"myID":"102","name":"陽光精神科醫院","address":"台中市清水區東山路68之1號","lon":120.60931,"lat":24.281092,"id":"5ff5539fd665a2afa6765703"},{"myID":"108","name":"洪外科醫院","address":"台南市中西區民生路2段60號","lon":120.1976531,"lat":22.9951697,"id":"5ff5539fd665a2afa6765704"},{"myID":"107","name":"行政院衛生署台南醫院","address":"台南市中西區中山路125號","lon":120.2088778,"lat":22.9960707,"id":"5ff5539fd665a2afa6765705"},{"myID":"110","name":"永和醫院","phone":2231191,"address":"台南市中西區府前路1段304巷2號","lon":120.1988936,"lat":22.9903504,"id":"5ff5539fd665a2afa6765706"},{"myID":"109","name":"仁村醫院","phone":2152607,"address":"台南市中西區西門路1段486號1、2、3、4樓、488號1樓及中西區府緯街63號1、2、3樓","lon":{"stringValue":"\"NaN\"","kind":"Number","value":null,"path":"lon"},"lat":{"stringValue":"\"NaN\"","kind":"Number","value":null,"path":"lat"},"id":"5ff5539fd665a2afa6765707"},{"myID":"103","name":"清濱醫院","address":"台中市清水區港埠路四段195號","lon":120.5489577,"lat":24.2830846,"id":"5ff5539fd665a2afa6765708"},{"myID":"104","name":"李綜合醫療社團法人大甲李綜合醫院","address":"台中市大甲區八德街2號","lon":120.6179957,"lat":24.3507913,"id":"5ff5539fd665a2afa6765709"},{"myID":"112","name":"仁愛醫院","address":"台南市東區北門路1段10號、30巷16號","lon":120.2115805,"lat":22.9897823,"id":"5ff5539fd665a2afa676570a"},{"myID":"115","name":"奇美醫療財團法人奇美醫院台南分院","address":"台南市南區樹林街2段442號","lon":120.1961859,"lat":22.9865344,"id":"5ff5539fd665a2afa676570b"},{"myID":"116","name":"美德中醫醫院","address":"台南市北區公園路661號","lon":120.213908,"lat":23.0159901,"id":"5ff5539fd665a2afa676570c"},{"myID":"117","name":"陳澤彥婦產科醫院","address":"台南市北區中華北路二段101號1、2、3樓","lon":120.1970754,"lat":23.0194279,"id":"5ff5539fd665a2afa676570d"},{"myID":"118","name":"國立成功大學醫學院附設醫院","address":"台南市北區勝利路138號","lon":120.2189867,"lat":23.0021803,"id":"5ff5539fd665a2afa676570e"},{"myID":"119","name":"開元寺慈愛醫院","phone":2384111,"address":"台南市北區北園街89之1號","lon":120.2229222,"lat":23.0107271,"id":"5ff5539fd665a2afa676570f"},{"myID":"120","name":"志誠醫院","address":"台南市北區公園路315之1號","lon":120.2100967,"lat":23.0035515,"id":"5ff5539fd665a2afa6765710"},{"myID":"111","name":"郭綜合醫院","phone":2221111,"address":"台南市中西區民生路2段6.8.10.12.14.18.20.22.23.24.25.27.44號","lon":120.193106,"lat":22.9962871,"id":"5ff5539fd665a2afa6765711"},{"myID":"114","name":"台灣基督長老教會新樓醫療財團法人台南新樓醫院","address":"台南市東區東門路1段57號","lon":120.213285,"lat":22.9891433,"id":"5ff5539fd665a2afa6765712"},{"myID":"113","name":"台南市立醫院","address":"台南市東區崇德路670號","lon":120.226853,"lat":22.968705,"id":"5ff5539fd665a2afa6765713"},{"myID":"122","name":"永達醫療社團法人永達醫院","address":"台南市永康區永大路二段1326號","lon":120.2614286,"lat":23.0221714,"id":"5ff5539fd665a2afa6765714"},{"myID":"125","name":"晉生醫療社團法人晉生慢性醫院","address":"台南市永康區中山南路902巷5號2樓及7號","lon":120.2491123,"lat":23.0213479,"id":"5ff5539fd665a2afa6765715"},{"myID":"126","name":"財團法人台灣省私立台南仁愛之家附設精神療養院","address":"台南市新化區中山路20號","lon":120.3197562,"lat":23.0511126,"id":"5ff5539fd665a2afa6765716"},{"myID":"127","name":"行政院衛生署台南醫院新化分院","address":"台南市新化區那拔里牧場72號","lon":120.336598,"lat":23.0628399,"id":"5ff5539fd665a2afa6765717"},{"myID":"121","name":"台南市立安南醫院-委託中國醫藥大學興建經營","address":"台南市安南區長和路二段66號","lon":120.221312,"lat":23.063519,"id":"5ff5539fd665a2afa6765718"},{"myID":"129","name":"行政院衛生署嘉南療養院","address":"台南市仁德區中山路870巷80號","lon":120.256905,"lat":23.028439,"id":"5ff5539fd665a2afa6765719"},{"myID":"130","name":"台灣基督長老教會新樓醫療財團法人麻豆新樓醫院","address":"台南市麻豆區小埤里苓子林20號","lon":120.232868,"lat":23.1802283,"id":"5ff5539fd665a2afa676571a"},{"myID":"131","name":"奇美醫療財團法人佳里奇美醫院","address":"台南市佳里區興化里606號","lon":120.1837918,"lat":23.1816689,"id":"5ff5539fd665a2afa676571b"},{"myID":"132","name":"新生醫院","address":"台南市佳里區新生路272號,297號1- 4樓","lon":120.1765493,"lat":23.1603958,"id":"5ff5539fd665a2afa676571c"},{"myID":"133","name":"信一骨科醫院","address":"台南市新營區民生路43之26號","lon":120.3090217,"lat":23.3059414,"id":"5ff5539fd665a2afa676571d"},{"myID":"124","name":"奇美醫療財團法人奇美醫院","address":"台南市永康區中華路901號","lon":120.2220415,"lat":23.0209835,"id":"5ff5539fd665a2afa676571e"},{"myID":"135","name":"新興醫療社團法人新興醫院","address":"台南市新營區中興路10號","lon":120.316843,"lat":23.303633,"id":"5ff5539fd665a2afa676571f"},{"myID":"136","name":"行政院衛生署新營醫院","address":"台南市新營區信義街73號","lon":120.3133911,"lat":23.3088708,"id":"5ff5539fd665a2afa6765720"},{"myID":"137","name":"佑昇醫院","address":"台南市白河區民安路一號","lon":120.4111669,"lat":23.3461727,"id":"5ff5539fd665a2afa6765721"},{"myID":"138","name":"奇美醫療財團法人柳營奇美醫院","address":"台南市柳營區太康里201號","lon":120.325344,"lat":23.288519,"id":"5ff5539fd665a2afa6765722"},{"myID":"139","name":"謝醫院","address":"台南市善化區中正路436號","lon":120.2940313,"lat":23.1305646,"id":"5ff5539fd665a2afa6765723"},{"myID":"123","name":"高雄榮民總醫院台南分院","address":"台南市永康區復興路427號","lon":120.2402983,"lat":22.9973101,"id":"5ff5539fd665a2afa6765724"},{"myID":"128","name":"行政院衛生署胸腔病院","address":"台南市仁德區中山路864號","lon":120.2404549,"lat":22.9747262,"id":"5ff5539fd665a2afa6765725"},{"myID":"142","name":"靜和醫院","address":"高雄市新興區民族二路176,178,180,182號","lon":120.314078,"lat":22.636151,"id":"5ff5539fd665a2afa6765726"},{"myID":"143","name":"新華醫院","address":"高雄市新興區七賢二路97號地下1層，地上1至6層","lon":120.299918,"lat":22.634313,"id":"5ff5539fd665a2afa6765727"},{"myID":"144","name":"優生美地醫院","address":"高雄市新興區七賢一路420號地下一層，地上一至五層","lon":120.309348,"lat":22.633937,"id":"5ff5539fd665a2afa6765728"},{"myID":"145","name":"大千醫院","address":"高雄市新興區中正三路一之11號","lon":120.3124367,"lat":22.6304584,"id":"5ff5539fd665a2afa6765729"},{"myID":"140","name":"宏科醫院","address":"台南市善化區三民路1-35號","lon":120.2870613,"lat":23.12766,"id":"5ff5539fd665a2afa676572a"},{"myID":"147","name":"蕭志文醫院","address":"高雄市新興區七賢一路102號","lon":120.3142396,"lat":22.6338766,"id":"5ff5539fd665a2afa676572b"},{"myID":"134","name":"營新醫院","phone":6592592,"address":"台南市新營區隋唐街228號","lon":120.2998812,"lat":23.3084846,"id":"5ff5539fd665a2afa676572c"},{"myID":"146","name":"惠仁醫院","address":"高雄市新興區中山一路67之2號","lon":120.3015448,"lat":22.6298539,"id":"5ff5539fd665a2afa676572d"},{"myID":"141","name":"原祿骨科醫院","address":"高雄市新興區中正三路52號","lon":120.3091091,"lat":22.6310876,"id":"5ff5539fd665a2afa676572e"},{"myID":"149","name":"中正骨科醫院","phone":2855999,"address":"高雄市前金區中正四路100號地下一樓，地上十三樓","lon":120.2937201,"lat":22.628025,"id":"5ff5539fd665a2afa676572f"},{"myID":"148","name":"上琳醫院","address":"高雄市前金區自強一路67號B1-7樓","lon":120.2928959,"lat":22.6312167,"id":"5ff5539fd665a2afa6765730"},{"myID":"150","name":"健新醫院","address":"高雄市前金區七賢二路295號","lon":120.2907659,"lat":22.6313515,"id":"5ff5539fd665a2afa6765731"},{"myID":"152","name":"高雄市立大同醫院(委託財團法人私立高雄醫學大學附設中和紀念醫院經營)","phone":null,"address":"高雄市前金區中華三路68號","lon":120.2972463,"lat":22.6269695,"id":"5ff5539fd665a2afa6765732"},{"myID":"155","name":"高雄市立民生醫院","address":"高雄市苓雅區凱旋二路134號","lon":120.3235881,"lat":22.626625,"id":"5ff5539fd665a2afa6765733"},{"myID":"156","name":"高雄市立凱旋醫院","address":"高雄市苓雅區凱旋二路一三0號","lon":120.32451,"lat":22.622175,"id":"5ff5539fd665a2afa6765734"},{"myID":"151","name":"高雄市立中醫醫院","address":"高雄市前金區中華三路68號1-4樓部分樓層(新盛街入口)","lon":120.2972463,"lat":22.6269695,"id":"5ff5539fd665a2afa6765735"},{"myID":"153","name":"重仁骨科醫院","address":"高雄市前金區中華三路247號1至6樓","lon":120.2937721,"lat":22.6343497,"id":"5ff5539fd665a2afa6765736"},{"myID":"157","name":"國軍高雄總醫院附設民眾診療服務處","address":"高雄市苓雅區建軍路5號","lon":120.3419285,"lat":22.6259888,"id":"5ff5539fd665a2afa6765737"},{"myID":"160","name":"濟代中醫醫院","address":"高雄市苓雅區苓雅二路205、207、209號","lon":120.295823,"lat":22.616052,"id":"5ff5539fd665a2afa6765738"},{"myID":"161","name":"邱外科醫院","address":"高雄市苓雅區成功一路137號1-6樓","lon":120.297335,"lat":22.6147008,"id":"5ff5539fd665a2afa6765739"},{"myID":"162","name":"財團法人天主教聖功醫院","address":"高雄市苓雅區建國一路352號","lon":120.3239205,"lat":22.6330888,"id":"5ff5539fd665a2afa676573a"},{"myID":"163","name":"信義醫療財團法人高雄基督教醫院","address":"高雄市苓雅區華新街86號","lon":120.2963175,"lat":22.6139801,"id":"5ff5539fd665a2afa676573b"},{"myID":"164","name":"高雄市立聯合醫院","address":"高雄市鼓山區中華一路976號","lon":120.291194,"lat":22.654927,"id":"5ff5539fd665a2afa676573c"},{"myID":"165","name":"聖明醫院","address":"高雄市鼓山區鼓山三路52號","lon":120.2755406,"lat":22.6550513,"id":"5ff5539fd665a2afa676573d"},{"myID":"166","name":"正大醫院","address":"高雄市鼓山區鼓山三路128號之9、葆禎路263、265號","lon":120.2795962,"lat":22.6640859,"id":"5ff5539fd665a2afa676573e"},{"myID":"167","name":"三泰醫院","address":"高雄市鼓山區九如四路1030號","lon":120.2792447,"lat":22.6556751,"id":"5ff5539fd665a2afa676573f"},{"myID":"168","name":"生安婦產小兒科醫院","phone":5223138,"address":"高雄市鼓山區美術東二路177號B2-11F","lon":120.2882223,"lat":22.6624537,"id":"5ff5539fd665a2afa6765740"},{"myID":"169","name":"高雄市立旗津醫院〈委託阮綜合醫療社團法人阮綜合醫院經營〉","phone":5712891,"address":"高雄市旗津區廟前路1之1號","lon":120.2674085,"lat":22.6114965,"id":"5ff5539fd665a2afa6765741"},{"myID":"170","name":"正薪醫院","address":"高雄市前鎮區一心一路233號1-3樓","lon":120.317754,"lat":22.60791,"id":"5ff5539fd665a2afa6765742"},{"myID":"171","name":"瑞祥醫院","phone":7717503,"address":"高雄市前鎮區班超路92號地下1樓，地上1-7樓","lon":120.32575,"lat":22.601624,"id":"5ff5539fd665a2afa6765743"},{"myID":"172","name":"二聖醫院","address":"高雄市前鎮區二聖一路71號英明一路144號","lon":120.3251014,"lat":22.6119974,"id":"5ff5539fd665a2afa6765744"},{"myID":"173","name":"吳昆哲婦產小兒科醫院","address":"高雄市前鎮區民權二路430號","lon":120.314339,"lat":22.6120453,"id":"5ff5539fd665a2afa6765745"},{"myID":"154","name":"聖和醫院","phone":null,"address":"高雄市前金區青年二路6號1-4樓","lon":120.301735,"lat":22.620013,"id":"5ff5539fd665a2afa6765746"},{"myID":"158","name":"阮綜合醫療社團法人阮綜合醫院","address":"高雄市苓雅區成功一路162號.四維四路136號.166號.永昌街49號","lon":120.6660044,"lat":23.0108714,"id":"5ff5539fd665a2afa6765747"},{"myID":"176","name":"謝外科醫院","address":"高雄市三民區河北一路330號","lon":120.3031855,"lat":22.6368098,"id":"5ff5539fd665a2afa6765748"},{"myID":"174","name":"佳欣婦幼醫院","address":"高雄市前鎮區三多三路149號","lon":120.3102381,"lat":22.615646,"id":"5ff5539fd665a2afa6765749"},{"myID":"178","name":"全民醫院","address":"高雄市三民區九如二路501.503.505.507.509號1- 4樓","lon":120.2985516,"lat":22.6413741,"id":"5ff5539fd665a2afa676574a"},{"myID":"179","name":"文雄醫院","address":"高雄市三民區察哈爾二街132號地下1層地上1至4層","lon":120.2994899,"lat":22.6479975,"id":"5ff5539fd665a2afa676574b"},{"myID":"180","name":"民族醫院","address":"高雄市三民區民族一路880號(地下一樓.地上一至九樓)","lon":120.3173024,"lat":22.6685085,"id":"5ff5539fd665a2afa676574c"},{"myID":"181","name":"健生醫院","address":"高雄市三民區九如二路68號","lon":120.3116621,"lat":22.6407611,"id":"5ff5539fd665a2afa676574d"},{"myID":"182","name":"祐生醫院","address":"高雄市三民區建國三路60號","lon":120.2961286,"lat":22.6379608,"id":"5ff5539fd665a2afa676574e"},{"myID":"159","name":"乃榮醫療社團法人乃榮醫院","phone":null,"address":"高雄市苓雅區三多二路226.228號.地下1樓-5樓","lon":120.3187958,"lat":22.6187761,"id":"5ff5539fd665a2afa676574f"},{"myID":"184","name":"德謙醫院","address":"高雄市三民區九如二路18號地下1樓至6樓","lon":120.313181,"lat":22.64066,"id":"5ff5539fd665a2afa6765750"},{"myID":"185","name":"新高醫院","address":"高雄市三民區莊敬路288號1-9樓","lon":120.3181937,"lat":22.6498119,"id":"5ff5539fd665a2afa6765751"},{"myID":"186","name":"財團法人私立高雄醫學大學附設中和紀念醫院","address":"高雄市三民區十全一路100號","lon":120.310416,"lat":22.6477347,"id":"5ff5539fd665a2afa6765752"},{"myID":"187","name":"宏明醫院","address":"高雄市三民區建國三路415號","lon":120.2915164,"lat":22.6362756,"id":"5ff5539fd665a2afa6765753"},{"myID":"188","name":"右昌聯合醫院","address":"高雄市楠梓區軍校路930號B1-9F","lon":120.290911,"lat":22.713502,"id":"5ff5539fd665a2afa6765754"},{"myID":"177","name":"四季台安醫院","address":"高雄市三民區聯興路157號(地下1樓至6樓)、高雄市三民區聯興路145巷1號1-3樓","lon":120.312761,"lat":22.659355,"id":"5ff5539fd665a2afa6765755"},{"myID":"190","name":"健仁醫院","address":"高雄市楠梓區楠陽路136號朝明路130巷7弄1號1-5樓","lon":120.3286022,"lat":22.7238563,"id":"5ff5539fd665a2afa6765756"},{"myID":"191","name":"顏威裕醫院","address":"高雄市楠梓區後昌路826號1-7樓","lon":120.2956427,"lat":22.7111148,"id":"5ff5539fd665a2afa6765757"},{"myID":"192","name":"臨海醫院","phone":8012171,"address":"高雄市小港區沿海一路店鎮里461號一至七樓","lon":120.356824,"lat":22.561708,"id":"5ff5539fd665a2afa6765758"},{"myID":"193","name":"戴銘浚婦兒醫院","address":"高雄市小港區宏平路正苓里661號一至六樓","lon":120.351197,"lat":22.569615,"id":"5ff5539fd665a2afa6765759"},{"myID":"194","name":"安泰醫院","address":"高雄市小港區沿海一路219、221號漢民路253、255、257號(地下1樓~5樓)","lon":120.352431,"lat":22.5663705,"id":"5ff5539fd665a2afa676575a"},{"myID":"175","name":"愛仁醫療社團法人愛仁醫院","address":"高雄市三民區民族一路45號1樓至4樓及49、51號1樓至5樓","lon":120.313904,"lat":22.641667,"id":"5ff5539fd665a2afa676575b"},{"myID":"196","name":"馨蕙馨醫院","address":"高雄市左營區明誠二路541號","lon":120.303823,"lat":22.660976,"id":"5ff5539fd665a2afa676575c"},{"myID":"197","name":"行政院國軍退除役官兵輔導委員會高雄榮民總醫院","address":"高雄市左營區大中一路386號","lon":120.3223833,"lat":22.6797317,"id":"5ff5539fd665a2afa676575d"},{"myID":"198","name":"國軍高雄總醫院左營分院附設民眾診療服務處","address":"高雄市左營區軍校路553號","lon":120.2904141,"lat":22.7015284,"id":"5ff5539fd665a2afa676575e"},{"myID":"199","name":"柏仁醫院","address":"高雄市左營區博愛二路350號地下1樓至地上1-5樓","lon":120.3039485,"lat":22.6595956,"id":"5ff5539fd665a2afa676575f"},{"myID":"200","name":"博正醫院","address":"高雄市左營區博愛二路100號地下1樓至5樓","lon":120.3088659,"lat":22.6596293,"id":"5ff5539fd665a2afa6765760"},{"myID":"189","name":"長春醫院","address":"高雄市楠梓區右昌街331號1-5樓","lon":120.2891543,"lat":22.7143351,"id":"5ff5539fd665a2afa6765761"},{"myID":"202","name":"樂安醫院","address":"高雄市岡山區通校路300號","lon":120.2811364,"lat":22.7923473,"id":"5ff5539fd665a2afa6765762"},{"myID":"201","name":"劉光雄醫院","address":"高雄市岡山區岡山路380之1號","lon":120.2959246,"lat":22.7942191,"id":"5ff5539fd665a2afa6765763"},{"myID":"203","name":"國軍高雄總醫院岡山分院附設民眾診療服務處","address":"高雄市岡山區大義二路1號","lon":120.2855337,"lat":22.7894037,"id":"5ff5539fd665a2afa6765764"},{"myID":"204","name":"劉嘉修醫院","address":"高雄市岡山區岡山路428號1,2,3,6樓及 4 2 6號1,2,3樓","lon":120.2957623,"lat":22.7957276,"id":"5ff5539fd665a2afa6765765"},{"myID":"205","name":"高雄市立岡山醫院（委託秀傳醫療社團法人經營）","address":"高雄市岡山區壽天路12號","lon":120.294619,"lat":22.7966146,"id":"5ff5539fd665a2afa6765766"},{"myID":"206","name":"惠川醫院","address":"高雄市岡山區岡山路92號","lon":120.2967107,"lat":22.7880036,"id":"5ff5539fd665a2afa6765767"},{"myID":"195","name":"高雄市立小港醫院(委託財團法人私立高雄醫學大學經營)","address":"高雄市小港區山明里山明路482號B1-10樓","lon":120.3633173,"lat":22.5674103,"id":"5ff5539fd665a2afa6765768"},{"myID":"183","name":"南山醫院","address":"高雄市三民區建國三路151.153號1~3樓","lon":120.2985463,"lat":22.6377216,"id":"5ff5539fd665a2afa6765769"},{"myID":"210","name":"靜和醫院燕巢分院","address":"高雄市燕巢區深水里深水路3之20號","lon":120.4207093,"lat":22.7813639,"id":"5ff5539fd665a2afa676576a"},{"myID":"211","name":"義大醫療財團法人義大醫院","address":"高雄市燕巢區角宿里義大路1號","lon":120.3628399,"lat":22.7645226,"id":"5ff5539fd665a2afa676576b"},{"myID":"212","name":"泰和醫院","address":"高雄市橋頭區成功路101號","lon":120.3098788,"lat":22.7588154,"id":"5ff5539fd665a2afa676576c"},{"myID":"208","name":"溫有諒醫院","address":"高雄市路竹區延平路57號","lon":120.2584972,"lat":22.8580921,"id":"5ff5539fd665a2afa676576d"},{"myID":"214","name":"新高鳳醫院","phone":7472320,"address":"高雄市鳳山區光遠路360號","lon":120.3587884,"lat":22.6262008,"id":"5ff5539fd665a2afa676576e"},{"myID":"215","name":"仁惠婦幼醫院","address":"高雄市鳳山區自由路81號","lon":120.3533596,"lat":22.6258233,"id":"5ff5539fd665a2afa676576f"},{"myID":"216","name":"惠德醫院","address":"高雄市鳳山區福祥街81號及同號2樓","lon":120.3251684,"lat":22.5920202,"id":"5ff5539fd665a2afa6765770"},{"myID":"207","name":"高新醫院","address":"高雄市路竹區中山路627號","lon":120.2578569,"lat":22.8630823,"id":"5ff5539fd665a2afa6765771"},{"myID":"218","name":"大東醫院","address":"高雄市鳳山區光遠路171-2號","lon":120.3619182,"lat":22.6253849,"id":"5ff5539fd665a2afa6765772"},{"myID":"219","name":"馬光中醫醫院","phone":7478055,"address":"高雄市鳳山區維新路122號1、2樓","lon":120.3611495,"lat":22.6245787,"id":"5ff5539fd665a2afa6765773"},{"myID":"220","name":"高雄市立鳳山醫院（委託長庚醫療財團法人經營）","address":"高雄市鳳山區經武路42號","lon":120.3631044,"lat":22.6285073,"id":"5ff5539fd665a2afa6765774"},{"myID":"209","name":"長佑醫院","address":"高雄市阿蓮區中山路150號","lon":120.3287469,"lat":22.8795802,"id":"5ff5539fd665a2afa6765775"},{"myID":"217","name":"優生婦產科醫院","address":"高雄市鳳山區自由路189號","lon":120.351021,"lat":22.625555,"id":"5ff5539fd665a2afa6765776"},{"myID":"223","name":"樂生婦幼醫院","phone":7862688,"address":"高雄市大寮區鳳林三路532號","lon":120.3953959,"lat":22.6065442,"id":"5ff5539fd665a2afa6765777"},{"myID":"213","name":"杏和醫院","address":"高雄市鳳山區五甲二路389號、470號1樓","lon":120.3355853,"lat":22.5977854,"id":"5ff5539fd665a2afa6765778"},{"myID":"225","name":"建佑醫院","address":"高雄市林園區東林西路360、362號、364巷10號、399號、407巷7號","lon":120.3864095,"lat":22.5036757,"id":"5ff5539fd665a2afa6765779"},{"myID":"226","name":"長庚醫療財團法人高雄長庚紀念醫院","address":"高雄市鳥松區大埤路123號","lon":120.3572375,"lat":22.6556627,"id":"5ff5539fd665a2afa676577a"},{"myID":"222","name":"瑞生醫院","phone":77838843,"address":"高雄市大寮區鳳林四路192號","lon":120.3847689,"lat":22.6176492,"id":"5ff5539fd665a2afa676577b"},{"myID":"228","name":"廣聖醫療社團法人廣聖醫院","address":"高雄市旗山區中華路618號1-6樓","lon":120.485433,"lat":22.8849861,"id":"5ff5539fd665a2afa676577c"},{"myID":"229","name":"重安醫院","address":"高雄市旗山區大仁街18號","lon":120.4847621,"lat":22.8830217,"id":"5ff5539fd665a2afa676577d"},{"myID":"230","name":"溪洲醫院","address":"高雄市旗山區延平一路412、408號","lon":120.483207,"lat":22.8927625,"id":"5ff5539fd665a2afa676577e"},{"myID":"231","name":"博愛醫院","address":"高雄市旗山區延平一路689號","lon":120.483231,"lat":22.883632,"id":"5ff5539fd665a2afa676577f"},{"myID":"232","name":"三聖醫院","address":"高雄市美濃區合和里合和路56號及58號，成功路182-2號","lon":120.548117,"lat":22.8940591,"id":"5ff5539fd665a2afa6765780"},{"myID":"233","name":"三軍總醫院附設基隆民眾診療服務處","address":"基隆市仁愛區孝二路39號中正區正榮街100號","lon":121.739416,"lat":25.1288232,"id":"5ff5539fd665a2afa6765781"}]